Dog_Name,Dog_Breed,Location_masked,Latitude_masked,Longitude_masked,Neighborhood
Q,Cockerpoo,"(42.37695144, -71.13143341)",-71.13143341,-71.13143341,West Cambridge
Parker,Pointer,"(42.36524806, -71.10962391)",-71.10962391,-71.10962391,Riverside
Arrow,Poodle,"(42.36035777, -71.11422322)",-71.11422322,-71.11422322,Cambridgeport
Shasta,Shih Poo,"(42.3745027, -71.0937696)",-71.0937696,-71.0937696,NA
Cash,Labrador Retriever,"(42.37200905, -71.0955469)",-71.0955469,-71.0955469,Wellington-Harrington
Barley,Labradoodle,"(42.37426564, -71.13756283)",-71.13756283,-71.13756283,West Cambridge
Abbey,Golden Retriever,"(42.38324793, -71.11384252)",-71.11384252,-71.11384252,Agassiz
Alley,Greyhound,"(42.3845921, -71.13093142)",-71.13093142,-71.13093142,Neighborhood Nine
Pixel,Chihuahua Mix,"(42.39553933, -71.14368235)",-71.14368235,-71.14368235,North Cambridge
Radley,Great Pyrenees,"(42.37438738, -71.10526028)",-71.10526028,-71.10526028,Mid-Cambridge
Penny,Labrador Retriever,"(42.39360504, -71.1321777)",-71.1321777,-71.1321777,North Cambridge
Morrison,Shih Tzu,"(42.37925121, -71.12267716)",-71.12267716,-71.12267716,Neighborhood Nine
Cooper,Maltipoo,"(42.37372698, -71.12374676)",-71.12374676,-71.12374676,West Cambridge
Brownie,English Spaniel Springer,"(42.37243939, -71.08120487)",-71.08120487,-71.08120487,East Cambridge
Poona,Mix,"(42.39135517, -71.13466501)",-71.13466501,-71.13466501,Neighborhood Nine
Boomer,Labrador Beagle Mix,"(42.36981547, -71.0923783)",-71.0923783,-71.0923783,Wellington-Harrington
Trooper,Weimaramer,"(42.36868118, -71.11213291)",-71.11213291,-71.11213291,Riverside
Pappu,Pomeranian,"(42.36443727, -71.09657013)",-71.09657013,-71.09657013,The Port
Bess,Brittany Spaniel,"(42.36891145, -71.10613815)",-71.10613815,-71.10613815,Mid-Cambridge
Ness,Schnauzer,"(42.36824233, -71.10226469)",-71.10226469,-71.10226469,The Port
Tommy,Chihuahua Mix,"(42.36361375, -71.09967878)",-71.09967878,-71.09967878,Cambridgeport
Jasper,Labradoddle,"(42.36333819, -71.11119821)",-71.11119821,-71.11119821,Cambridgeport
Busy,Cairn Terr.,"(42.36197889, -71.10832262)",-71.10832262,-71.10832262,Cambridgeport
Oscar,German Shepherd Mix,"(42.36994868, -71.11130235)",-71.11130235,-71.11130235,Riverside
Elsa,Shih Tzu,"(42.37305455, -71.0972054)",-71.0972054,-71.0972054,Wellington-Harrington
Dolly,Labrador Retriever,"(42.37106846, -71.11219484)",-71.11219484,-71.11219484,Mid-Cambridge
Lola,Springer Spaniel,"(42.35604465, -71.10844835)",-71.10844835,-71.10844835,Cambridgeport
Frida Marcantonio,Havanese,"(42.37242852, -71.12642828)",-71.12642828,-71.12642828,West Cambridge
Bowie,Vizsla,"(42.39974939, -71.12808433)",-71.12808433,-71.12808433,North Cambridge
Chloe,Polish Lowland Sheepdog,"(42.37508792, -71.09829801)",-71.09829801,-71.09829801,Wellington-Harrington
Maddie,Hound,"(42.38785172, -71.15800777)",-71.15800777,-71.15800777,Strawberry Hill
Iggy,American Eskimo,"(42.37782084, -71.12627785)",-71.12627785,-71.12627785,Neighborhood Nine
Hedy Bouquet,French Bulldog,"(42.37671808, -71.14819332)",-71.14819332,-71.14819332,West Cambridge
Piper,Chi/Terr Mix,"(42.3682697, -71.08334045)",-71.08334045,-71.08334045,East Cambridge
Apollo,Pit Bull Terrier Mix,"(42.38796802, -71.133027)",-71.133027,-71.133027,Neighborhood Nine
Little Juda,Yorkie Poo,"(42.40442133, -71.13426903)",-71.13426903,-71.13426903,North Cambridge
Mojo,Labrador Retriever,"(42.39151608, -71.13112664)",-71.13112664,-71.13112664,North Cambridge
Sweetie,Beagle,"(42.37532621, -71.12608067)",-71.12608067,-71.12608067,West Cambridge
Duro,Siberian Husky,"(42.37239, -71.10998146)",-71.10998146,-71.10998146,Mid-Cambridge
Nany,Pomeranian,"(42.36821717, -71.10060644)",-71.10060644,-71.10060644,Mid-Cambridge
Lorelei,Greyhound,"(42.37266177, -71.08656779)",-71.08656779,-71.08656779,East Cambridge
Dottie,Pit Bull Mix,"(42.38700048, -71.14401572)",-71.14401572,-71.14401572,Cambridge Highlands
Ziggy,Golden Doodle,"(42.39454209, -71.13015301)",-71.13015301,-71.13015301,North Cambridge
Emmy,Boston Terrier,"(42.38906956, -71.12214756)",-71.12214756,-71.12214756,Neighborhood Nine
Loki,Toy Fox Terrier,"(42.38719173, -71.1450649)",-71.1450649,-71.1450649,Cambridge Highlands
Peetsie,Golden Retriever,"(42.37827492, -71.14472111)",-71.14472111,-71.14472111,West Cambridge
Stasi,Doberman,"(42.37489314, -71.14379701)",-71.14379701,-71.14379701,West Cambridge
Finnegan,Maltese,"(42.37154416, -71.0848749)",-71.0848749,-71.0848749,East Cambridge
C.J.,Newfoundland,"(42.3804176, -71.14638809)",-71.14638809,-71.14638809,West Cambridge
Bohdi,Portuguese Water Dog,"(42.37596407, -71.12948117)",-71.12948117,-71.12948117,West Cambridge
Obie,Labrador Retriever,"(42.38147031, -71.12176434)",-71.12176434,-71.12176434,Neighborhood Nine
Delilah,LABRADOR Retriever,"(42.36053081, -71.10893964)",-71.10893964,-71.10893964,Cambridgeport
Willie,Yorkie Poo,"(42.37141751, -71.11474121)",-71.11474121,-71.11474121,Mid-Cambridge
Murphy,Pug,"(42.38473756, -71.1257116)",-71.1257116,-71.1257116,Neighborhood Nine
Sandy,Cairn Terr,"(42.38136295, -71.13063046)",-71.13063046,-71.13063046,Neighborhood Nine
Fyodor,Miniature Schnauzer,"(42.3821707, -71.11540276)",-71.11540276,-71.11540276,Agassiz
Sophie,Whippet Mix,"(42.37749697, -71.10957069)",-71.10957069,-71.10957069,Agassiz
Annie,Pug,"(42.36610253, -71.11121189)",-71.11121189,-71.11121189,Riverside
Franklin,French Buldog,"(42.36227838, -71.10257005)",-71.10257005,-71.10257005,Cambridgeport
Star,Min Poodle,"(42.39584167, -71.13718222)",-71.13718222,-71.13718222,North Cambridge
Chica Maria,English Labrador,"(42.35861948, -71.1093481)",-71.1093481,-71.1093481,Cambridgeport
Gloria,West Highland White Terrier,"(42.38303805, -71.13366976)",-71.13366976,-71.13366976,West Cambridge
Albee,Pointer,"(42.36687901, -71.10988736)",-71.10988736,-71.10988736,Riverside
Lola,Cavalier King Charles Spaniel,"(42.36856255, -71.07542669)",-71.07542669,-71.07542669,East Cambridge
Roxy,Yorksire Terrier,"(42.36910468, -71.10299805)",-71.10299805,-71.10299805,Mid-Cambridge
Ollie,Cavalier King Charles Spaniel,"(42.39351461, -71.14530861)",-71.14530861,-71.14530861,Cambridge Highlands
Callie,Beagle,"(42.37242507, -71.10288176)",-71.10288176,-71.10288176,Mid-Cambridge
Remy,Bichon Frise,"(42.37599055, -71.12898843)",-71.12898843,-71.12898843,West Cambridge
Lily,Labrador Retriever,"(42.38040678, -71.12767025)",-71.12767025,-71.12767025,West Cambridge
Mica,Yorkshire Terrier,"(42.36287422, -71.08236271)",-71.08236271,-71.08236271,East Cambridge
Bella,Maltese,"(42.35512242, -71.10754444)",-71.10754444,-71.10754444,Cambridgeport
Summer,Labrador Retriever,"(42.36506817, -71.10268179)",-71.10268179,-71.10268179,Cambridgeport
Willow,Labrador Retriever,"(42.37117757, -71.10899906)",-71.10899906,-71.10899906,Mid-Cambridge
Penny,Bichon Frise,"(42.37464074, -71.08210702)",-71.08210702,-71.08210702,East Cambridge
Nino,Toy Poodle,"(42.3572861, -71.10632162)",-71.10632162,-71.10632162,Cambridgeport
Tucker Worth,LABRADOR Retriever,"(42.36927257, -71.09314376)",-71.09314376,-71.09314376,Wellington-Harrington
Sukey,LABRADOR Retriever,"(42.37795587, -71.13154448)",-71.13154448,-71.13154448,West Cambridge
Sonny,Chihuahua,"(42.39490687, -71.13438545)",-71.13438545,-71.13438545,North Cambridge
Maggie Rose,Golden Retriever,"(42.37316412, -71.12757545)",-71.12757545,-71.12757545,West Cambridge
Shelby,German Shepherd,"(42.37834998, -71.12871428)",-71.12871428,-71.12871428,West Cambridge
Lil Bit,Boxer,"(42.38603176, -71.13318739)",-71.13318739,-71.13318739,Neighborhood Nine
Willow,Standard Poodle,"(42.38674963, -71.13515847)",-71.13515847,-71.13515847,Neighborhood Nine
Dharmaja,Labrador Retriever,"(42.39543357, -71.12947381)",-71.12947381,-71.12947381,North Cambridge
Sasha,Jack Russell Terrier Mix,"(42.3683314, -71.09798012)",-71.09798012,-71.09798012,The Port
Smoky,German Shepherd,"(42.39304375, -71.1558526)",-71.1558526,-71.1558526,Cambridge Highlands
Spenser,Labrador Retriever,"(42.38170994, -71.14178666)",-71.14178666,-71.14178666,West Cambridge
Trixie,Cavachon,"(42.39835671, -71.13470388)",-71.13470388,-71.13470388,North Cambridge
Penelope,Labrador Retriever,"(42.37613811, -71.1308208)",-71.1308208,-71.1308208,West Cambridge
Anubis,Poodle,"(42.39918135, -71.1323078)",-71.1323078,-71.1323078,North Cambridge
Cadence,German Shepherd Mix,"(42.39411274, -71.12871831)",-71.12871831,-71.12871831,North Cambridge
Hugo,Boxer,"(42.38156934, -71.15097351)",-71.15097351,-71.15097351,Strawberry Hill
Jake,Lab Mix,"(42.38150542, -71.13355545)",-71.13355545,-71.13355545,West Cambridge
Doobs,Labrador Retriever,"(42.38814435, -71.14565642)",-71.14565642,-71.14565642,Cambridge Highlands
Meli,Kelpie,"(42.39323043, -71.14506318)",-71.14506318,-71.14506318,Cambridge Highlands
Izzy,Terrier,"(42.37898413, -71.13603713)",-71.13603713,-71.13603713,West Cambridge
Riven,Chihuahua,"(42.3634574, -71.10882548)",-71.10882548,-71.10882548,Cambridgeport
Dexter,OLDE ENGLISH BULLDOG,"(42.36587355, -71.08477516)",-71.08477516,-71.08477516,East Cambridge
Lillie,Beagle,"(42.38110143, -71.1085241)",-71.1085241,-71.1085241,Agassiz
Rusty,Long Hair Dachshund,"(42.39181343, -71.14743756)",-71.14743756,-71.14743756,Cambridge Highlands
Mr. Gus,BOSTON TERRIER,"(42.37233608, -71.08456741)",-71.08456741,-71.08456741,East Cambridge
Moxie,Labrador Retriever Mix,"(42.35989901, -71.11145432)",-71.11145432,-71.11145432,Cambridgeport
Niche,Pug,"(42.37099332, -71.11728567)",-71.11728567,-71.11728567,Riverside
Gracie,Labrador Retriever,"(42.37408279, -71.10005497)",-71.10005497,-71.10005497,Mid-Cambridge
Chloe,Border Collie,"(42.36947345, -71.10684072)",-71.10684072,-71.10684072,Mid-Cambridge
Rocky,Bichon Frise,"(42.37313158, -71.1315578)",-71.1315578,-71.1315578,West Cambridge
Zoey,West Highland White Terrier,"(42.39819372, -71.1502885)",-71.1502885,-71.1502885,North Cambridge
Maya,Sheltie Mix,"(42.37921904, -71.1188685)",-71.1188685,-71.1188685,Neighborhood Nine
Louie,Yorkshire Terrier,"(42.36706556, -71.09929601)",-71.09929601,-71.09929601,The Port
Widget,Entlebucher,"(42.37052438, -71.11305743)",-71.11305743,-71.11305743,Riverside
Bear,Chihuahua,"(42.36689407, -71.10612402)",-71.10612402,-71.10612402,Mid-Cambridge
Penzey,Golden Retriever,"(42.38395098, -71.13520196)",-71.13520196,-71.13520196,Neighborhood Nine
Taco,Cocker Spaniel,"(42.3962881, -71.12543277)",-71.12543277,-71.12543277,North Cambridge
Tomato,Corgi,"(42.39347318, -71.14781118)",-71.14781118,-71.14781118,North Cambridge
Murphy,Golden Retriever,"(42.37417723, -71.10355314)",-71.10355314,-71.10355314,Mid-Cambridge
Mochi,French Bulldog,"(42.3885041, -71.12192867)",-71.12192867,-71.12192867,North Cambridge
Maximus,Lab Shepherd Mix,"(42.40215451, -71.1511923)",-71.1511923,-71.1511923,North Cambridge
Pastis,Miniature Poodle,"(42.36267491, -71.10158512)",-71.10158512,-71.10158512,Cambridgeport
Xena,Labrador Retriever,"(42.378544, -71.13512056)",-71.13512056,-71.13512056,West Cambridge
Shadow,Labrador Retriever,"(42.36762426, -71.11070122)",-71.11070122,-71.11070122,Mid-Cambridge
Banjo,Chihuahua Mix,"(42.39428079, -71.13022075)",-71.13022075,-71.13022075,North Cambridge
Dakota,Portuguese Water Dog,"(42.36620057, -71.11354768)",-71.11354768,-71.11354768,Riverside
Lola,Chihuahua Mix,"(42.38978314, -71.12595293)",-71.12595293,-71.12595293,Neighborhood Nine
Maple,Miniature Pincher,"(42.39344266, -71.14691021)",-71.14691021,-71.14691021,Cambridge Highlands
Tucker,Golden Retriever,"(42.40075765, -71.13440458)",-71.13440458,-71.13440458,North Cambridge
Sadie,American English Coonhound,"(42.36035182, -71.10024007)",-71.10024007,-71.10024007,Cambridgeport
Lilly Messina,Boxer Mix,"(42.3741866, -71.07853409)",-71.07853409,-71.07853409,East Cambridge
Coco,Maltese,"(42.37059286, -71.09451398)",-71.09451398,-71.09451398,The Port
Bonnie,Chihuahua,"(42.39315833, -71.13726941)",-71.13726941,-71.13726941,North Cambridge
Kobe,Pit Bull,"(42.36197097, -71.10892049)",-71.10892049,-71.10892049,Cambridgeport
Bella,Maltese,"(42.36790756, -71.09705059)",-71.09705059,-71.09705059,The Port
Caliban,Bearded Collie,"(42.38813449, -71.12898418)",-71.12898418,-71.12898418,Neighborhood Nine
Thelma,Portuguese Water Dog,"(42.39238247, -71.13175963)",-71.13175963,-71.13175963,North Cambridge
Reggie,American Staffordshire Terrier,"(42.36925653, -71.09483097)",-71.09483097,-71.09483097,Wellington-Harrington
Princess,Pomerainian,"(42.40064871, -71.13363629)",-71.13363629,-71.13363629,North Cambridge
Samson,Coton De Tulear,"(42.37850902, -71.13410925)",-71.13410925,-71.13410925,West Cambridge
Lexi,Labrador Retriever,"(42.39009861, -71.12056532)",-71.12056532,-71.12056532,North Cambridge
Cosmo,Chihuahua,"(42.36362945, -71.09498617)",-71.09498617,-71.09498617,The Port
Lola,Australian Shepherd,"(42.38134305, -71.12152128)",-71.12152128,-71.12152128,Neighborhood Nine
Zoe,Puggle,"(42.36745968, -71.07876421)",-71.07876421,-71.07876421,East Cambridge
Gummi Bear,Cockerpoo,"(42.37433099, -71.1488884)",-71.1488884,-71.1488884,Strawberry Hill
Clyde,Miniature Pinscher,"(42.37557878, -71.12328018)",-71.12328018,-71.12328018,West Cambridge
Keiko,Australian Shepherd,"(42.39002291, -71.12422265)",-71.12422265,-71.12422265,North Cambridge
Deacon,English Springer Spaniel,"(42.40061445, -71.14045965)",-71.14045965,-71.14045965,North Cambridge
Tucker,Labrador Retriever,"(42.39373015, -71.13381209)",-71.13381209,-71.13381209,North Cambridge
Lulah,Toy Poodle,"(42.36769422, -71.09542452)",-71.09542452,-71.09542452,Wellington-Harrington
Jackson,Australian Cattle Dog,"(42.38313466, -71.11523638)",-71.11523638,-71.11523638,Agassiz
Esme,Pointer,"(42.36844521, -71.09648381)",-71.09648381,-71.09648381,The Port
Cannoli,Hound Mix,"(42.37989397, -71.15139428)",-71.15139428,-71.15139428,Strawberry Hill
Moses,Labrador Retriever,"(42.3970832, -71.13530121)",-71.13530121,-71.13530121,North Cambridge
Scout,Beagle,"(42.39064812, -71.12343997)",-71.12343997,-71.12343997,North Cambridge
Nemo,Mix,"(42.374406, -71.14667788)",-71.14667788,-71.14667788,West Cambridge
Mae,Parson Russell Terrier,"(42.38586515, -71.11590998)",-71.11590998,-71.11590998,Agassiz
Bodo,Rat Terrier,"(42.37483546, -71.14992165)",-71.14992165,-71.14992165,Strawberry Hill
Sona,Pug,"(42.38371516, -71.12854782)",-71.12854782,-71.12854782,Neighborhood Nine
Oscar,Chihuahua,"(42.39051108, -71.14523907)",-71.14523907,-71.14523907,Cambridge Highlands
Willie Lizzie,Lab Hound Mix,"(42.37564779, -71.09444777)",-71.09444777,-71.09444777,Wellington-Harrington
Yumi,Chihuahua Mix,"(42.36688809, -71.1114359)",-71.1114359,-71.1114359,Riverside
Zoe,Collie Mix,"(42.39779713, -71.12730624)",-71.12730624,-71.12730624,North Cambridge
Olive,Mix,"(42.36923153, -71.09368677)",-71.09368677,-71.09368677,The Port
Lucy,Labrador Retriever,"(42.37847926, -71.13655474)",-71.13655474,-71.13655474,West Cambridge
Gussy,Boxer,"(42.37648812, -71.15518598)",-71.15518598,-71.15518598,Strawberry Hill
Rufus,Brittany Spaniel,"(42.35851123, -71.10973383)",-71.10973383,-71.10973383,Cambridgeport
Nico,Spinone,"(42.3707952, -71.10341083)",-71.10341083,-71.10341083,Mid-Cambridge
Izzy,Carolina Dog,"(42.36870425, -71.09265369)",-71.09265369,-71.09265369,Wellington-Harrington
Lulu,Terrier,"(42.36371595, -71.10462586)",-71.10462586,-71.10462586,Cambridgeport
Calliope,Whippet,"(42.36442031, -71.11433504)",-71.11433504,-71.11433504,Riverside
Ruthie,Blue Heeler Mix,"(42.39642107, -71.13673445)",-71.13673445,-71.13673445,North Cambridge
Tucker,Golden Retriever,"(42.38421487, -71.13122931)",-71.13122931,-71.13122931,Neighborhood Nine
Jango,German Shepherd Mix,"(42.39396091, -71.12341134)",-71.12341134,-71.12341134,NA
Twyla,Poddle Mix,"(42.36910236, -71.08225655)",-71.08225655,-71.08225655,East Cambridge
Zoe,Labrador Retriever,"(42.35914331, -71.11208265)",-71.11208265,-71.11208265,Cambridgeport
Oliver,Hound Mix,"(42.39632346, -71.12922483)",-71.12922483,-71.12922483,North Cambridge
Lani,Golden Retriever,"(42.36635765, -71.11224076)",-71.11224076,-71.11224076,Riverside
Charlie,Papillion Mix,"(42.37486419, -71.10368138)",-71.10368138,-71.10368138,Mid-Cambridge
Logan,Lab Ret Mix,"(42.37415123, -71.07761194)",-71.07761194,-71.07761194,East Cambridge
Hilo,Poodle,"(42.38721288, -71.12359135)",-71.12359135,-71.12359135,Neighborhood Nine
Polo,Cairn Terrier,"(42.39556572, -71.14572379)",-71.14572379,-71.14572379,North Cambridge
Isabel,Shiba Inu,"(42.37206436, -71.07947085)",-71.07947085,-71.07947085,East Cambridge
Emma,Border Terrier,"(42.37035307, -71.08618453)",-71.08618453,-71.08618453,East Cambridge
Sandy,Shih Tzu,"(42.38079738, -71.14377484)",-71.14377484,-71.14377484,West Cambridge
Lani Kai,Wheaton Terrier,"(42.36965217, -71.10224805)",-71.10224805,-71.10224805,Mid-Cambridge
Yuki,Labrador Retriever,"(42.38782488, -71.12829235)",-71.12829235,-71.12829235,Neighborhood Nine
Neo,Shetland Sheepdog,"(42.39419723, -71.14619589)",-71.14619589,-71.14619589,Cambridge Highlands
Marlowe,Hound Mix,"(42.39330621, -71.14759436)",-71.14759436,-71.14759436,North Cambridge
Ginger,Wheaton Terrier,"(42.38662329, -71.12847647)",-71.12847647,-71.12847647,Neighborhood Nine
Dixie,Golden Retriever,"(42.38784642, -71.12896727)",-71.12896727,-71.12896727,Neighborhood Nine
Tjapo,Golden Retriever,"(42.3708184, -71.1060217)",-71.1060217,-71.1060217,Mid-Cambridge
Missy,MINIATURE POODLE,"(42.37389191, -71.1321872)",-71.1321872,-71.1321872,West Cambridge
Rosie,Shih Tzu,"(42.36910081, -71.10022852)",-71.10022852,-71.10022852,The Port
Myles,Coonhound - American Black & Tan,"(42.38758507, -71.12837271)",-71.12837271,-71.12837271,Neighborhood Nine
Henderson,Labrador Retriever,"(42.36024199, -71.10701657)",-71.10701657,-71.10701657,Cambridgeport
Ella,Japanese Chin,"(42.37278774, -71.0970213)",-71.0970213,-71.0970213,Wellington-Harrington
Angel,Terrier Mix,"(42.38355544, -71.12038624)",-71.12038624,-71.12038624,Neighborhood Nine
Etta,Hound,"(42.36602112, -71.10498792)",-71.10498792,-71.10498792,Mid-Cambridge
Riley,Leonberger,"(42.36936143, -71.10078333)",-71.10078333,-71.10078333,The Port
Charlie Blonde,Labrador Retriever,"(42.38911679, -71.12416237)",-71.12416237,-71.12416237,Neighborhood Nine
Penelope,Labrador Retriever,"(42.38381842, -71.13780173)",-71.13780173,-71.13780173,Neighborhood Nine
Cooper,Golden Retriever,"(42.38214677, -71.13495388)",-71.13495388,-71.13495388,West Cambridge
Beba,Pekingese Mix,"(42.35830664, -71.10460495)",-71.10460495,-71.10460495,Cambridgeport
Molly,Dachshund,"(42.36587762, -71.10657477)",-71.10657477,-71.10657477,Riverside
Maggie,Labrador Retriever,"(42.36178024, -71.10677843)",-71.10677843,-71.10677843,Cambridgeport
Leo,Cocker Spaniel,"(42.39091341, -71.15552264)",-71.15552264,-71.15552264,Cambridge Highlands
Leelu,Rhodesian Ridgeback,"(42.3898503, -71.1300656)",-71.1300656,-71.1300656,North Cambridge
Dreamer,Bernese Mountain Dog,"(42.37496579, -71.12933506)",-71.12933506,-71.12933506,West Cambridge
Kelly,Golden Retriever,"(42.37722075, -71.10961037)",-71.10961037,-71.10961037,Mid-Cambridge
Winston,Hound,"(42.37395566, -71.10677567)",-71.10677567,-71.10677567,Mid-Cambridge
Rojo,Labradoddle,"(42.38544092, -71.11872234)",-71.11872234,-71.11872234,Agassiz
Mister Bear,French Bulldog,"(42.38757717, -71.12059254)",-71.12059254,-71.12059254,Neighborhood Nine
Artimiss,Maltese Mix,"(42.3635308, -71.10649911)",-71.10649911,-71.10649911,Cambridgeport
Birdie,Terrier Mix,"(42.36710551, -71.08089944)",-71.08089944,-71.08089944,East Cambridge
Buttercup,BOSTON TERRIER,"(42.37288418, -71.08584352)",-71.08584352,-71.08584352,East Cambridge
Oliver,Bassett Hound,"(42.3798431, -71.13191374)",-71.13191374,-71.13191374,West Cambridge
Gracie,Labrador Retriever,"(42.37998024, -71.12408107)",-71.12408107,-71.12408107,Neighborhood Nine
Chip,Australian Shepherd,"(42.38295165, -71.1395)",-71.1395,-71.1395,West Cambridge
Keeva,Labrador Retriever,"(42.40197244, -71.13401977)",-71.13401977,-71.13401977,North Cambridge
Puffy,Poodle,"(42.3642363, -71.09867979)",-71.09867979,-71.09867979,The Port
Eleanor,Yorkie Poo,"(42.37412714, -71.08042717)",-71.08042717,-71.08042717,East Cambridge
Benyo,Spaniel,"(42.37078041, -71.0956226)",-71.0956226,-71.0956226,Wellington-Harrington
Santana,Cavalier King Charles Mix,"(42.37291141, -71.09709522)",-71.09709522,-71.09709522,Wellington-Harrington
Bay,Pit,"(42.36193243, -71.10495513)",-71.10495513,-71.10495513,Cambridgeport
Rivet,Siberian Husky,"(42.36460416, -71.10975047)",-71.10975047,-71.10975047,Riverside
Harry,Sheep Dog,"(42.37745174, -71.1347854)",-71.1347854,-71.1347854,West Cambridge
Roxy,Labrador Retriever,"(42.38434856, -71.13117384)",-71.13117384,-71.13117384,Neighborhood Nine
Izzy,Greyhound,"(42.3710573, -71.09979799)",-71.09979799,-71.09979799,Wellington-Harrington
Lucky,Labrador Retriever,"(42.38184877, -71.13407633)",-71.13407633,-71.13407633,West Cambridge
Henry,Shih Tzu,"(42.37481941, -71.12346859)",-71.12346859,-71.12346859,West Cambridge
Schnapps,Schnauzer Mix,"(42.38367288, -71.13200857)",-71.13200857,-71.13200857,Neighborhood Nine
Louie,Australian Cattle Dog,"(42.37397486, -71.08330227)",-71.08330227,-71.08330227,East Cambridge
Beau,Bernese & Border Mix,"(42.39221445, -71.13912155)",-71.13912155,-71.13912155,Neighborhood Nine
Tyler,Boxer Mix,"(42.39509705, -71.15630166)",-71.15630166,-71.15630166,Cambridge Highlands
Winston,Maltese,"(42.40191038, -71.15102152)",-71.15102152,-71.15102152,North Cambridge
Georgie,Border Collie,"(42.38156958, -71.14290077)",-71.14290077,-71.14290077,West Cambridge
C.J.,Mix,"(42.37236599, -71.08781667)",-71.08781667,-71.08781667,East Cambridge
Daisy,YORKIE MIX,"(42.36711009, -71.09919008)",-71.09919008,-71.09919008,The Port
Baloo,LABRADOODLE,"(42.36616797, -71.08315338)",-71.08315338,-71.08315338,East Cambridge
Flower,Chihuahua Mix,"(42.36431679, -71.10718102)",-71.10718102,-71.10718102,Cambridgeport
Lily,Irish Setter,"(42.37372557, -71.10125047)",-71.10125047,-71.10125047,Mid-Cambridge
Charlie,Min Australian Shepherd,"(42.38694512, -71.12969051)",-71.12969051,-71.12969051,Neighborhood Nine
Mulligan,,"(42.3813572, -71.13867777)",-71.13867777,-71.13867777,West Cambridge
Rosie,Coton De Tulear,"(42.39479898, -71.12911504)",-71.12911504,-71.12911504,North Cambridge
Teddy,Norfolk Terrier,"(42.37496334, -71.13681057)",-71.13681057,-71.13681057,West Cambridge
Atom,Terrier Mix,"(42.39515744, -71.14381568)",-71.14381568,-71.14381568,North Cambridge
Rudy,Terrier,"(42.39177651, -71.12871793)",-71.12871793,-71.12871793,North Cambridge
Minnie,Scottish Terrier,"(42.37495005, -71.10859032)",-71.10859032,-71.10859032,Mid-Cambridge
Susie,Mix,"(42.38528179, -71.14043871)",-71.14043871,-71.14043871,Neighborhood Nine
Cleve,Standard Poodle,"(42.36875107, -71.11101273)",-71.11101273,-71.11101273,Riverside
Sierra,Labrador Retriever,"(42.3757541, -71.12380965)",-71.12380965,-71.12380965,West Cambridge
Nessy,Australian Shepherd,"(42.38154143, -71.14165539)",-71.14165539,-71.14165539,West Cambridge
Burdick,Labrador Retriever,"(42.37116064, -71.11047863)",-71.11047863,-71.11047863,Mid-Cambridge
George,Maltese,"(42.39566844, -71.13474773)",-71.13474773,-71.13474773,North Cambridge
Biscuit,Yorksire Terrier,"(42.36955115, -71.11240947)",-71.11240947,-71.11240947,Mid-Cambridge
Midnight,Pomeranian,"(42.37013661, -71.0836577)",-71.0836577,-71.0836577,East Cambridge
Hazel,Corgi,"(42.36856311, -71.09963798)",-71.09963798,-71.09963798,The Port
Ed,Australian Cattle Dog,"(42.37862604, -71.11592404)",-71.11592404,-71.11592404,Agassiz
Louis,Maltese / Poodle Mix,"(42.36719502, -71.10343729)",-71.10343729,-71.10343729,Cambridgeport
Logan,Estrela Mountain,"(42.36348948, -71.10615697)",-71.10615697,-71.10615697,Cambridgeport
Athena,Pug,"(42.3686986, -71.12096167)",-71.12096167,-71.12096167,Riverside
Tui,Mix,"(42.37319248, -71.10890352)",-71.10890352,-71.10890352,Mid-Cambridge
Aki,Bichon Bolognese,"(42.39675514, -71.14695009)",-71.14695009,-71.14695009,North Cambridge
Golden,Brittany Spaniel,"(42.38641701, -71.12846526)",-71.12846526,-71.12846526,Neighborhood Nine
Marlowe,Maltese,"(42.37435441, -71.11037997)",-71.11037997,-71.11037997,Mid-Cambridge
Laverne,Fox Terrier,"(42.3758326, -71.13334258)",-71.13334258,-71.13334258,West Cambridge
Mia,Border Collie,"(42.39334374, -71.14493792)",-71.14493792,-71.14493792,Cambridge Highlands
Kora,Australian Shepherd,"(42.36626425, -71.0991028)",-71.0991028,-71.0991028,The Port
Buddy,Yorksire Terrier,"(42.36851814, -71.08665841)",-71.08665841,-71.08665841,East Cambridge
Willie,Dachshund,"(42.36405233, -71.11146816)",-71.11146816,-71.11146816,Cambridgeport
Bridget,Chihuahua,"(42.38277721, -71.11421382)",-71.11421382,-71.11421382,Agassiz
Maggie,Schnauzer,"(42.36863885, -71.09475863)",-71.09475863,-71.09475863,Wellington-Harrington
Misty,Border Collie,"(42.38660896, -71.12169817)",-71.12169817,-71.12169817,Neighborhood Nine
Austin,Labradoodle,"(42.38741204, -71.12672348)",-71.12672348,-71.12672348,Neighborhood Nine
Penny,Labrador Retriever Mix,"(42.3656004, -71.08476119)",-71.08476119,-71.08476119,East Cambridge
Emerson,Golden Doodle,"(42.37482407, -71.10875147)",-71.10875147,-71.10875147,Mid-Cambridge
Brillo,Dachshund,"(42.36785862, -71.11571382)",-71.11571382,-71.11571382,Riverside
Souki,Labrador Retriever,"(42.39247819, -71.13533711)",-71.13533711,-71.13533711,North Cambridge
Beezus,Shi Tsu / Terrier / Mix,"(42.38595782, -71.12022712)",-71.12022712,-71.12022712,Agassiz
Mohican Madison,Greyhound,"(42.3960144, -71.13510536)",-71.13510536,-71.13510536,North Cambridge
Edie,Mix,"(42.37110775, -71.0966525)",-71.0966525,-71.0966525,The Port
Kima,Labrador Retriever Mix,"(42.37193993, -71.10092433)",-71.10092433,-71.10092433,Mid-Cambridge
Bosco,Mix,"(42.3780826, -71.11072946)",-71.11072946,-71.11072946,Mid-Cambridge
Rory,Collie,"(42.38908956, -71.12622901)",-71.12622901,-71.12622901,Neighborhood Nine
Minga,Labrador Retriever,"(42.37360939, -71.10292919)",-71.10292919,-71.10292919,Mid-Cambridge
Anzu,Labrador Retriever,"(42.36779189, -71.10345343)",-71.10345343,-71.10345343,Mid-Cambridge
Panda,Mix,"(42.36857237, -71.07068266)",-71.07068266,-71.07068266,East Cambridge
Bella,Goldendoodle,"(42.37173035, -71.08696837)",-71.08696837,-71.08696837,Wellington-Harrington
Baxter,Beagle,"(42.38553648, -71.13366604)",-71.13366604,-71.13366604,Neighborhood Nine
Nora,Dachshund,"(42.38399035, -71.1333783)",-71.1333783,-71.1333783,West Cambridge
Obi,Australian Shepherd,"(42.35698833, -71.10630827)",-71.10630827,-71.10630827,Cambridgeport
Lallygag,Tibetan Terrier,"(42.38090109, -71.12672733)",-71.12672733,-71.12672733,West Cambridge
Lainey,BEAGLE,"(42.39556155, -71.12764673)",-71.12764673,-71.12764673,North Cambridge
Sammie,Cockerpoo,"(42.37062225, -71.10312519)",-71.10312519,-71.10312519,Mid-Cambridge
Kramer,Yorksire Terrier,"(42.3988923, -71.13134545)",-71.13134545,-71.13134545,North Cambridge
Joey,Labradoodle,"(42.3828709, -71.11928795)",-71.11928795,-71.11928795,Agassiz
Nonnie,Miniature Poodle,"(42.35985506, -71.11243786)",-71.11243786,-71.11243786,Cambridgeport
Snowball,Miniature American Eskimo,"(42.36704088, -71.0844613)",-71.0844613,-71.0844613,East Cambridge
Annie,West Highland White Terrier,"(42.36910888, -71.10029773)",-71.10029773,-71.10029773,The Port
Doug,Terrier,"(42.3832443, -71.13597033)",-71.13597033,-71.13597033,West Cambridge
Mo,Maltese,"(42.36432394, -71.11502463)",-71.11502463,-71.11502463,Riverside
Nuala,Australian Cattle Dog,"(42.38233408, -71.13772875)",-71.13772875,-71.13772875,West Cambridge
Finn,Labrador Retriever,"(42.37924078, -71.14222925)",-71.14222925,-71.14222925,West Cambridge
Porter,Miniatue Pinscher,"(42.36953433, -71.08011067)",-71.08011067,-71.08011067,East Cambridge
Daisy,Lab Mix,"(42.40078327, -71.13434168)",-71.13434168,-71.13434168,North Cambridge
Fred,Boxer,"(42.39904278, -71.13620389)",-71.13620389,-71.13620389,North Cambridge
Sam,Miniature Dachshund,"(42.39577348, -71.12774692)",-71.12774692,-71.12774692,North Cambridge
Rue,Corgi,"(42.36939531, -71.08261195)",-71.08261195,-71.08261195,East Cambridge
Cassie,Corgi,"(42.38000986, -71.10961261)",-71.10961261,-71.10961261,Agassiz
Avett,Terrier Mix,"(42.38272992, -71.13727131)",-71.13727131,-71.13727131,West Cambridge
Phatty,Vizsla,"(42.39400638, -71.13586611)",-71.13586611,-71.13586611,North Cambridge
Teddy,Corgi,"(42.3726481, -71.10725042)",-71.10725042,-71.10725042,Mid-Cambridge
Odette,Boxer Mix,"(42.37316252, -71.07936782)",-71.07936782,-71.07936782,East Cambridge
Cheyenne,Labrador Retriever,"(42.37941722, -71.13998776)",-71.13998776,-71.13998776,West Cambridge
Fergus,Terrier,"(42.3650098, -71.08344795)",-71.08344795,-71.08344795,East Cambridge
Hunter,Maltipoo,"(42.37910251, -71.13480402)",-71.13480402,-71.13480402,West Cambridge
Ricky,Chihuahua,"(42.36038312, -71.10779074)",-71.10779074,-71.10779074,Cambridgeport
Maybel,Chihuahua,"(42.37124315, -71.0829463)",-71.0829463,-71.0829463,East Cambridge
Bonnie Killeen,Labrador Ter Mix,"(42.39690061, -71.14713971)",-71.14713971,-71.14713971,North Cambridge
Garbanzo,Yorksire Terrier,"(42.36359238, -71.10682804)",-71.10682804,-71.10682804,Cambridgeport
Boo,Shih Tzu,"(42.39763004, -71.1404461)",-71.1404461,-71.1404461,North Cambridge
Oscar,Lhasa Apso,"(42.37629697, -71.14927951)",-71.14927951,-71.14927951,Strawberry Hill
Otis,Corgi,"(42.36404026, -71.08476393)",-71.08476393,-71.08476393,East Cambridge
Milo,Boxer,"(42.37122313, -71.10482569)",-71.10482569,-71.10482569,Mid-Cambridge
Geyser,Cocker Spaniel,"(42.38263333, -71.13819013)",-71.13819013,-71.13819013,West Cambridge
Bellman Ford,Goldedoodle,"(42.35751744, -71.10954808)",-71.10954808,-71.10954808,Cambridgeport
Max,Labrador Retriever,"(42.4003802, -71.15343975)",-71.15343975,-71.15343975,North Cambridge
Duncan,Golden Retriever,"(42.37871864, -71.13691792)",-71.13691792,-71.13691792,West Cambridge
Winny,Bichon Frise,"(42.36828983, -71.11156972)",-71.11156972,-71.11156972,Mid-Cambridge
Bella,Terrier,"(42.38834212, -71.12423788)",-71.12423788,-71.12423788,North Cambridge
Orange,Pug,"(42.37671731, -71.09520621)",-71.09520621,-71.09520621,NA
S.K.,Greyhound,"(42.37986558, -71.12070555)",-71.12070555,-71.12070555,Neighborhood Nine
Daisy,Cockerpoo,"(42.38030324, -71.11043989)",-71.11043989,-71.11043989,Agassiz
Baxter,Boxer,"(42.36580907, -71.11021125)",-71.11021125,-71.11021125,Riverside
Stanley,Shih Tzu Mix,"(42.38120091, -71.11840083)",-71.11840083,-71.11840083,Agassiz
Oliver,Shih Tzu,"(42.3705327, -71.09289642)",-71.09289642,-71.09289642,Wellington-Harrington
Oscar,Labrador Reetriever,"(42.37134858, -71.11153742)",-71.11153742,-71.11153742,Mid-Cambridge
Hopi,Siberian Husky,"(42.36636252, -71.08194587)",-71.08194587,-71.08194587,East Cambridge
Quinn,Portuguese Water Dog,"(42.38552466, -71.11811362)",-71.11811362,-71.11811362,Agassiz
Lucy,Labrador Retriever Mix,"(42.39037319, -71.12178978)",-71.12178978,-71.12178978,North Cambridge
Henry Zoltani,French Bulldog,"(42.39368703, -71.14799946)",-71.14799946,-71.14799946,North Cambridge
Clementine,Labrador Retriever,"(42.383429, -71.1133736)",-71.1133736,-71.1133736,Agassiz
Jolene,Shep,"(42.36256221, -71.11141261)",-71.11141261,-71.11141261,Riverside
Duango,Chihuahua,"(42.37060844, -71.11707437)",-71.11707437,-71.11707437,Riverside
Maisy,Golden Retriever,"(42.37055749, -71.09826369)",-71.09826369,-71.09826369,The Port
Celeste,Poodle,"(42.37668166, -71.11009992)",-71.11009992,-71.11009992,Agassiz
Brown Boy,,"(42.3834995, -71.13705809)",-71.13705809,-71.13705809,West Cambridge
Pascal,Cockerpoo,"(42.36067231, -71.10753945)",-71.10753945,-71.10753945,Cambridgeport
Miles,Cairn Terrier,"(42.36657946, -71.10200472)",-71.10200472,-71.10200472,The Port
Wallace,Labrador Retriever,"(42.37223343, -71.08198014)",-71.08198014,-71.08198014,East Cambridge
Jules,Labrador Retriever Mix,"(42.38756501, -71.14540013)",-71.14540013,-71.14540013,Cambridge Highlands
Ayanna,Pomeranian,"(42.39050399, -71.1460992)",-71.1460992,-71.1460992,Cambridge Highlands
Echo,Labradoodle Mix,"(42.38209556, -71.11941284)",-71.11941284,-71.11941284,Neighborhood Nine
Cassidy,Australian Shepherd,"(42.37601259, -71.14765956)",-71.14765956,-71.14765956,West Cambridge
Bandit,Chihuahua,"(42.39244748, -71.14739839)",-71.14739839,-71.14739839,Cambridge Highlands
Sam,Puggle,"(42.39662992, -71.13011069)",-71.13011069,-71.13011069,North Cambridge
Homer,Labrador Retriever,"(42.38097331, -71.12852732)",-71.12852732,-71.12852732,Neighborhood Nine
Oban,Tibetan Terrier,"(42.37521735, -71.10883965)",-71.10883965,-71.10883965,Mid-Cambridge
Smudge,Havanese,"(42.37917861, -71.12299643)",-71.12299643,-71.12299643,Neighborhood Nine
Winter,Jack Russel Terrier,"(42.36880162, -71.09389766)",-71.09389766,-71.09389766,The Port
Arya,Samoyed,"(42.36344082, -71.10862597)",-71.10862597,-71.10862597,Cambridgeport
Gunner,Cocker Spaniel,"(42.4031883, -71.13420255)",-71.13420255,-71.13420255,North Cambridge
Roux,Catahoula Leopard Dog Mix,"(42.35525621, -71.11001291)",-71.11001291,-71.11001291,Cambridgeport
Oliver,Chihuahua Mix,"(42.37660799, -71.14741468)",-71.14741468,-71.14741468,West Cambridge
Max,Yorksire Terrier,"(42.3787097, -71.12584534)",-71.12584534,-71.12584534,Neighborhood Nine
Pearl,American Bulldog,"(42.36512624, -71.09421407)",-71.09421407,-71.09421407,The Port
Chloe,Miniature Schnauzer,"(42.37223036, -71.08004331)",-71.08004331,-71.08004331,East Cambridge
Blaze,Labrador Retriever,"(42.38409336, -71.13534542)",-71.13534542,-71.13534542,West Cambridge
Gimli,Boston Terr,"(42.39983736, -71.13561112)",-71.13561112,-71.13561112,North Cambridge
Cobalt,Alapha Blue Blood Bulldog,"(42.39371984, -71.14108494)",-71.14108494,-71.14108494,North Cambridge
Wiley,American Water Spaniel,"(42.39033192, -71.12227319)",-71.12227319,-71.12227319,North Cambridge
Serafina,Plott Hound,"(42.37005949, -71.09320433)",-71.09320433,-71.09320433,Wellington-Harrington
Connie,Old English Sheepdog,"(42.37358461, -71.13765765)",-71.13765765,-71.13765765,West Cambridge
Sammie,Cavapoo,"(42.36900706, -71.09560078)",-71.09560078,-71.09560078,Wellington-Harrington
Maximus,Golden Retriever,"(42.39294959, -71.1373137)",-71.1373137,-71.1373137,North Cambridge
Fiona,Lhasa Apso Mix,"(42.37419826, -71.11006005)",-71.11006005,-71.11006005,Mid-Cambridge
Mishka,Portuguese Water Dog,"(42.38697566, -71.13547572)",-71.13547572,-71.13547572,Neighborhood Nine
Kit,Labrador Retriever Mix,"(42.37742215, -71.15649752)",-71.15649752,-71.15649752,Strawberry Hill
Race,Cavalier King Charles Spaniel,"(42.38439592, -71.11438266)",-71.11438266,-71.11438266,Agassiz
Lucca,Border Collie Mix,"(42.37444575, -71.12799727)",-71.12799727,-71.12799727,West Cambridge
Sally,German Shepherd,"(42.39072985, -71.12761962)",-71.12761962,-71.12761962,North Cambridge
Rosie,Shih Tzu,"(42.37877145, -71.13762599)",-71.13762599,-71.13762599,West Cambridge
Opie,Labrador Retriever Mix,"(42.40087772, -71.15073133)",-71.15073133,-71.15073133,North Cambridge
Blackberry,Toy Poddle,"(42.39435469, -71.14387883)",-71.14387883,-71.14387883,North Cambridge
Tatum,Norfolk Terrier,"(42.37466726, -71.14166544)",-71.14166544,-71.14166544,West Cambridge
Ginger,Terrier,"(42.37686647, -71.10776361)",-71.10776361,-71.10776361,Agassiz
Daisy,Chihuahua,"(42.3904687, -71.13074836)",-71.13074836,-71.13074836,Neighborhood Nine
Lulu,Pit Bull,"(42.36508337, -71.09626126)",-71.09626126,-71.09626126,The Port
Ryder,American Pit Bull Terrier,"(42.36646284, -71.08568701)",-71.08568701,-71.08568701,East Cambridge
Wingnut,Siberian Husky,"(42.36371668, -71.10979319)",-71.10979319,-71.10979319,Riverside
Winnie,Siberian Husky,"(42.38176772, -71.13875621)",-71.13875621,-71.13875621,West Cambridge
Tashi,Lhasa Apso,"(42.3827456, -71.12097681)",-71.12097681,-71.12097681,Neighborhood Nine
Sophie,Cocker Spaniel Mix,"(42.39353944, -71.15733282)",-71.15733282,-71.15733282,Cambridge Highlands
Molly,Poodle Mix,"(42.36051679, -71.11187816)",-71.11187816,-71.11187816,Cambridgeport
Titan,Puggle,"(42.36159252, -71.10932158)",-71.10932158,-71.10932158,Cambridgeport
Annie,Border Collie,"(42.38353096, -71.12874296)",-71.12874296,-71.12874296,Neighborhood Nine
Merle Dutch,Boxer Bulldog Mix,"(42.37514175, -71.0960219)",-71.0960219,-71.0960219,Wellington-Harrington
Winston,Boston Terrier,"(42.36542787, -71.11590902)",-71.11590902,-71.11590902,Riverside
Loki,Saluki,"(42.37285192, -71.10206389)",-71.10206389,-71.10206389,Mid-Cambridge
Saint,Doberman,"(42.36821427, -71.08302518)",-71.08302518,-71.08302518,East Cambridge
Daisy,Beagle,"(42.39491801, -71.13757108)",-71.13757108,-71.13757108,North Cambridge
Sugar,Boston Terrier,"(42.36420085, -71.09213514)",-71.09213514,-71.09213514,The Port
Boudica,Airedale,"(42.38112443, -71.1302421)",-71.1302421,-71.1302421,Neighborhood Nine
Princess,Mixed,"(42.39061403, -71.14562951)",-71.14562951,-71.14562951,Cambridge Highlands
Pica,Chihuahua,"(42.36801142, -71.08001719)",-71.08001719,-71.08001719,East Cambridge
Bernie Mcdonough,Labrador Retriever Mix,"(42.36978509, -71.09267572)",-71.09267572,-71.09267572,Wellington-Harrington
Oscar,Shih Tsu,"(42.37125956, -71.07113081)",-71.07113081,-71.07113081,East Cambridge
Molly,Mix,"(42.39341864, -71.14774989)",-71.14774989,-71.14774989,North Cambridge
Linus,Silky Terrier,"(42.36283984, -71.09767179)",-71.09767179,-71.09767179,The Port
Bailey,Labradoddle,"(42.38885757, -71.13017634)",-71.13017634,-71.13017634,North Cambridge
Santiago Vargas Sosa,Yorkshire Terrier,"(42.39374823, -71.14804242)",-71.14804242,-71.14804242,North Cambridge
Rudy,POODLE,"(42.35735092, -71.11198414)",-71.11198414,-71.11198414,Cambridgeport
Jerry,Border Collie,"(42.36188026, -71.10138629)",-71.10138629,-71.10138629,Cambridgeport
Juno,Vizsla,"(42.38097399, -71.10836932)",-71.10836932,-71.10836932,Agassiz
Tyler,Cavalier King Charles Spaniel,"(42.3672145, -71.08434017)",-71.08434017,-71.08434017,East Cambridge
Piper,Terrier Mix,"(42.36286712, -71.10610096)",-71.10610096,-71.10610096,Cambridgeport
Lola,Cocker Spaniel,"(42.3903351, -71.14545375)",-71.14545375,-71.14545375,Cambridge Highlands
Rondo,Terrier,"(42.40114965, -71.13742634)",-71.13742634,-71.13742634,North Cambridge
Misty,Hound,"(42.39006445, -71.1315541)",-71.1315541,-71.1315541,North Cambridge
Kaalu,Standard Poodle,"(42.36663847, -71.11070026)",-71.11070026,-71.11070026,Riverside
Tatanka,Toy Poodle,"(42.38344505, -71.12959745)",-71.12959745,-71.12959745,Neighborhood Nine
Jack,Labradoodle,"(42.37280048, -71.11844079)",-71.11844079,-71.11844079,West Cambridge
Sydney Salguero,Labraddoodle,"(42.37919011, -71.14935209)",-71.14935209,-71.14935209,Strawberry Hill
Cooper,Saint Bernard,"(42.38691222, -71.1305576)",-71.1305576,-71.1305576,Neighborhood Nine
Franklin,Coonhound Mix,"(42.37316811, -71.07139851)",-71.07139851,-71.07139851,East Cambridge
Willow,Dachshund,"(42.36806118, -71.09840672)",-71.09840672,-71.09840672,The Port
Lotus,Poodle,"(42.36079554, -71.10911665)",-71.10911665,-71.10911665,Cambridgeport
Wally,Miniature Poodle,"(42.38628592, -71.13810737)",-71.13810737,-71.13810737,West Cambridge
Brenna,Labrador Retriever,"(42.35664053, -71.11427793)",-71.11427793,-71.11427793,Cambridgeport
Clementine,Golden - Doodle,"(42.38149502, -71.15072108)",-71.15072108,-71.15072108,Strawberry Hill
Lucy,Bassett Hound,"(42.36760114, -71.07239688)",-71.07239688,-71.07239688,East Cambridge
R2D2,Corgi Mix,"(42.36396112, -71.11366796)",-71.11366796,-71.11366796,Riverside
Clover,Border Collie Mix,"(42.35818572, -71.10728635)",-71.10728635,-71.10728635,Cambridgeport
Augustus,Bichon Frise,"(42.37986524, -71.11526921)",-71.11526921,-71.11526921,Agassiz
Charlie,Border Collie,"(42.36091598, -71.11076724)",-71.11076724,-71.11076724,Cambridgeport
Ziggy,Labradoddle,"(42.38044182, -71.14222932)",-71.14222932,-71.14222932,West Cambridge
Panda,Anatolian Shepherd,"(42.3788127, -71.12457674)",-71.12457674,-71.12457674,Neighborhood Nine
Charlie,Golden Retriever,"(42.36810082, -71.07183695)",-71.07183695,-71.07183695,East Cambridge
Finley,SHIH TZU MIXED,"(42.36009957, -71.11314464)",-71.11314464,-71.11314464,Cambridgeport
Nougat,Mix,"(42.36743547, -71.09192932)",-71.09192932,-71.09192932,The Port
Geno,Pug,"(42.40323698, -71.13360461)",-71.13360461,-71.13360461,North Cambridge
Harry,Yorksire Terrier,"(42.38399968, -71.12253061)",-71.12253061,-71.12253061,Neighborhood Nine
Marley,Flat Coated Retriever,"(42.36105386, -71.10830868)",-71.10830868,-71.10830868,Cambridgeport
Zulu,Havanese,"(42.37733414, -71.13922486)",-71.13922486,-71.13922486,West Cambridge
Zoe,German Shepherd-Lab,"(42.39101523, -71.12855351)",-71.12855351,-71.12855351,North Cambridge
Winston,Golden Retriever,"(42.37117219, -71.07210559)",-71.07210559,-71.07210559,East Cambridge
Pedro,Miniature Schnauzer,"(42.38821368, -71.1308516)",-71.1308516,-71.1308516,Neighborhood Nine
Proton,Beagle,"(42.39364782, -71.12369756)",-71.12369756,-71.12369756,North Cambridge
Wanda,Pit Bull,"(42.3887892, -71.11956078)",-71.11956078,-71.11956078,North Cambridge
Georgette,Belgian Malinois,"(42.38653706, -71.12728135)",-71.12728135,-71.12728135,Neighborhood Nine
Alby,Shih Tzu,"(42.36723164, -71.11287113)",-71.11287113,-71.11287113,Riverside
Penny Lane,Jack Russell Terrier,"(42.375342, -71.15194989)",-71.15194989,-71.15194989,Strawberry Hill
Brumby,Jack Russ. Terr.,"(42.38206523, -71.12316941)",-71.12316941,-71.12316941,Neighborhood Nine
Acadia,Labrador Mix,"(42.38408114, -71.13779368)",-71.13779368,-71.13779368,West Cambridge
Polly,Dachshund,"(42.36844607, -71.09122162)",-71.09122162,-71.09122162,Wellington-Harrington
Olive,Pug,"(42.36752611, -71.0959514)",-71.0959514,-71.0959514,The Port
Halle,Geman Shepard,"(42.40059426, -71.12855707)",-71.12855707,-71.12855707,NA
Stella,Brussels Griffon,"(42.38440048, -71.1140554)",-71.1140554,-71.1140554,Agassiz
Casey,Border Collie,"(42.37899459, -71.14458371)",-71.14458371,-71.14458371,West Cambridge
Dingo,Chihuahua,"(42.37479141, -71.09571893)",-71.09571893,-71.09571893,Wellington-Harrington
Fred,Poodle,"(42.37611107, -71.1480789)",-71.1480789,-71.1480789,Strawberry Hill
Lila,Border Terrier Mix,"(42.38956584, -71.12751955)",-71.12751955,-71.12751955,Neighborhood Nine
Baloo,Labrador Retriever,"(42.40189061, -71.15101018)",-71.15101018,-71.15101018,North Cambridge
Tala,Golden Doodle,"(42.36762101, -71.10863767)",-71.10863767,-71.10863767,Mid-Cambridge
Severus Snape,Shiba Inu,"(42.38498837, -71.12975302)",-71.12975302,-71.12975302,Neighborhood Nine
Finola,Australian Cattle Dog,"(42.38870725, -71.14774169)",-71.14774169,-71.14774169,Cambridge Highlands
Luka,Yorkshire Terrier,"(42.3952631, -71.12011126)",-71.12011126,-71.12011126,NA
Princess,Shih Tzu,"(42.36692637, -71.09362353)",-71.09362353,-71.09362353,The Port
Fenway,Labrador Retriever,"(42.37537327, -71.10032833)",-71.10032833,-71.10032833,Mid-Cambridge
Albert,Labrador Retriever,"(42.37130049, -71.12164875)",-71.12164875,-71.12164875,Riverside
Pebbles,Maltese,"(42.37194039, -71.08408442)",-71.08408442,-71.08408442,East Cambridge
Roxie,Rat Terrier Mix,"(42.36602247, -71.10310751)",-71.10310751,-71.10310751,Mid-Cambridge
Armstrong,Chihuahua,"(42.37219408, -71.07946928)",-71.07946928,-71.07946928,East Cambridge
Dahlia,Labrador Retriever,"(42.39450877, -71.1299192)",-71.1299192,-71.1299192,North Cambridge
Kaya,Tibetan Terrier,"(42.37351861, -71.11049444)",-71.11049444,-71.11049444,Mid-Cambridge
Egypt,Boxer,"(42.36723801, -71.09950664)",-71.09950664,-71.09950664,The Port
Lilly,Maltese,"(42.37011735, -71.070054)",-71.070054,-71.070054,East Cambridge
Grace,Miniature Poodle,"(42.38297027, -71.12749297)",-71.12749297,-71.12749297,Neighborhood Nine
Gracie,Yorkshire Terrier,"(42.38571559, -71.13452283)",-71.13452283,-71.13452283,Neighborhood Nine
Blackjack,Cockerpoo,"(42.3849616, -71.13582464)",-71.13582464,-71.13582464,Neighborhood Nine
Piper,Dachschund,"(42.38503731, -71.14020492)",-71.14020492,-71.14020492,West Cambridge
Wun Wun,Cardigan Welsh Corgi,"(42.36936963, -71.10680598)",-71.10680598,-71.10680598,Mid-Cambridge
Stewart,Miniature Poodle,"(42.36956277, -71.10407134)",-71.10407134,-71.10407134,Mid-Cambridge
Mookie,Maltise Mix,"(42.38745451, -71.12948114)",-71.12948114,-71.12948114,Neighborhood Nine
Paige,Brittany Spaniel,"(42.38342014, -71.12103004)",-71.12103004,-71.12103004,Neighborhood Nine
Lucy,Labrador Retriever,"(42.39221691, -71.13832819)",-71.13832819,-71.13832819,North Cambridge
Pippin,PAPILLON,"(42.36352075, -71.10453613)",-71.10453613,-71.10453613,Cambridgeport
June,Boxer Mix,"(42.36842886, -71.11386267)",-71.11386267,-71.11386267,Riverside
Bernie,LABRADOODLE,"(42.36772772, -71.09762821)",-71.09762821,-71.09762821,The Port
Chloe,Ret,"(42.39715218, -71.12815521)",-71.12815521,-71.12815521,North Cambridge
Cleo,German Sheherd,"(42.38099452, -71.13351553)",-71.13351553,-71.13351553,West Cambridge
Ringo,BASSET HOUND,"(42.37542818, -71.15080429)",-71.15080429,-71.15080429,Strawberry Hill
Zeke,POODLE,"(42.38501709, -71.11899011)",-71.11899011,-71.11899011,Agassiz
Athena,Vizsla,"(42.39148455, -71.12971027)",-71.12971027,-71.12971027,North Cambridge
Poky,Beagle,"(42.38879271, -71.12024205)",-71.12024205,-71.12024205,Neighborhood Nine
Ginger,Pug,"(42.37026802, -71.08475649)",-71.08475649,-71.08475649,East Cambridge
Sophie,Greyhound,"(42.37560242, -71.10401783)",-71.10401783,-71.10401783,Mid-Cambridge
Fusilli,German Shepherd,"(42.39331199, -71.13020432)",-71.13020432,-71.13020432,North Cambridge
Sky,Yorksire Terrier,"(42.3639055, -71.10131449)",-71.10131449,-71.10131449,The Port
Parallel Park,Cockapoo,"(42.36992358, -71.08744489)",-71.08744489,-71.08744489,East Cambridge
Barkley,American Bull Dog,"(42.36823901, -71.11136467)",-71.11136467,-71.11136467,Riverside
Gus,Terrier,"(42.39512082, -71.12925086)",-71.12925086,-71.12925086,North Cambridge
Molly,Lab Mix,"(42.39375389, -71.14374866)",-71.14374866,-71.14374866,North Cambridge
Flair,Golden Retriever,"(42.38224522, -71.14212946)",-71.14212946,-71.14212946,West Cambridge
Easy,Labrador Collie Mix,"(42.3873417, -71.12978238)",-71.12978238,-71.12978238,Neighborhood Nine
Moose,Maltese,"(42.37068421, -71.11451495)",-71.11451495,-71.11451495,Riverside
Maude,Labrador Retriever,"(42.38194348, -71.1330693)",-71.1330693,-71.1330693,West Cambridge
Echo,Hound,"(42.37857504, -71.14486096)",-71.14486096,-71.14486096,West Cambridge
Rocky,Havanese,"(42.37509391, -71.14646534)",-71.14646534,-71.14646534,West Cambridge
Luigi,Lagotto Romagnolo,"(42.3933796, -71.1476384)",-71.1476384,-71.1476384,North Cambridge
Emily Claire,Papillon,"(42.36738517, -71.090481)",-71.090481,-71.090481,Wellington-Harrington
Lexie,Golden Retriever,"(42.39105555, -71.14488497)",-71.14488497,-71.14488497,Cambridge Highlands
Ella,Cavalier King Charles Spaniel,"(42.38237845, -71.13897363)",-71.13897363,-71.13897363,West Cambridge
Velo,VIZSLA,"(42.37935105, -71.13663545)",-71.13663545,-71.13663545,West Cambridge
Paco,Border Collie,"(42.37945879, -71.1286201)",-71.1286201,-71.1286201,West Cambridge
Luc,LABRADOR RETRIEVER,"(42.37572697, -71.12921176)",-71.12921176,-71.12921176,West Cambridge
Bandit,PAPILLON,"(42.39293082, -71.12670562)",-71.12670562,-71.12670562,North Cambridge
Bella,Australian Shepherd,"(42.35889219, -71.10688961)",-71.10688961,-71.10688961,Cambridgeport
Jj,Labrabor Retriever,"(42.38834614, -71.13931986)",-71.13931986,-71.13931986,Neighborhood Nine
Koosa,Bor Colli Mix,"(42.35631489, -71.11076047)",-71.11076047,-71.11076047,Cambridgeport
Callie,Beagle,"(42.37058627, -71.0885554)",-71.0885554,-71.0885554,Wellington-Harrington
Reuben,Goldendoodle,"(42.37769239, -71.12807541)",-71.12807541,-71.12807541,West Cambridge
Bayles,German Shepherd,"(42.37954424, -71.14121361)",-71.14121361,-71.14121361,West Cambridge
Champ,Cocker Spaniel,"(42.35955969, -71.1115819)",-71.1115819,-71.1115819,Cambridgeport
Sweet Dill Pickle,Pit Bull,"(42.36295456, -71.10455716)",-71.10455716,-71.10455716,Cambridgeport
Lily,Dachshund,"(42.37599262, -71.14739685)",-71.14739685,-71.14739685,West Cambridge
Luna,Labrador Retriever,"(42.37818789, -71.14980416)",-71.14980416,-71.14980416,Strawberry Hill
Tori Faye,Chihuahua,"(42.35955401, -71.11091025)",-71.11091025,-71.11091025,Cambridgeport
Gus,Bernese Mountain Dog,"(42.37741071, -71.13319622)",-71.13319622,-71.13319622,West Cambridge
Mr. Darcy,Schnoodle,"(42.37040106, -71.1051445)",-71.1051445,-71.1051445,Mid-Cambridge
Molly,Dachshund,"(42.36544056, -71.09811626)",-71.09811626,-71.09811626,The Port
Otis,Terrier Mix,"(42.39253954, -71.13110265)",-71.13110265,-71.13110265,North Cambridge
Francis,Greyhound,"(42.36008217, -71.10547915)",-71.10547915,-71.10547915,Cambridgeport
Olive,Maltese,"(42.37553672, -71.15111126)",-71.15111126,-71.15111126,Strawberry Hill
Mike,Bichon Frise,"(42.39116769, -71.15669356)",-71.15669356,-71.15669356,Cambridge Highlands
Mandy,Hound,"(42.36987802, -71.07061879)",-71.07061879,-71.07061879,East Cambridge
Scout,German Shepherd,"(42.39239636, -71.13101027)",-71.13101027,-71.13101027,North Cambridge
Nomi,Hound,"(42.36999721, -71.11117811)",-71.11117811,-71.11117811,Riverside
Inky 2,French Bulldog,"(42.37227972, -71.1274911)",-71.1274911,-71.1274911,West Cambridge
Sammy,Shiba Inu,"(42.36670895, -71.0812888)",-71.0812888,-71.0812888,East Cambridge
Mimsy,Siberian Husky,"(42.36680993, -71.084582)",-71.084582,-71.084582,East Cambridge
Zoey,French Bulldog/Bos Terr,"(42.37859115, -71.13065008)",-71.13065008,-71.13065008,West Cambridge
Nico,Pointer,"(42.3952636, -71.1234743)",-71.1234743,-71.1234743,NA
Rufus,Cockerpoo,"(42.37772192, -71.12609232)",-71.12609232,-71.12609232,West Cambridge
Mojo Jojo,Pomeranian Mix,"(42.37001897, -71.07333447)",-71.07333447,-71.07333447,East Cambridge
Ollie,LABRADOR Retriever,"(42.36788834, -71.11475582)",-71.11475582,-71.11475582,Riverside
Emma,Bernese Mountain Dog,"(42.37315176, -71.12232357)",-71.12232357,-71.12232357,West Cambridge
Pnutt,English Bulldog,"(42.37855279, -71.11604925)",-71.11604925,-71.11604925,Agassiz
Charlie,West Highland White Terrier,"(42.38903824, -71.12515321)",-71.12515321,-71.12515321,North Cambridge
Moose,German Shorthair Pointer,"(42.38782568, -71.13148271)",-71.13148271,-71.13148271,Neighborhood Nine
Roscoe Klein,Terrier Mix,"(42.35908338, -71.10785461)",-71.10785461,-71.10785461,Cambridgeport
Pepper,Mix,"(42.36717513, -71.09415114)",-71.09415114,-71.09415114,The Port
Clem,Mix,"(42.36559467, -71.10600984)",-71.10600984,-71.10600984,Cambridgeport
Queen,American Staffordshire Terrier,"(42.38351844, -71.15872835)",-71.15872835,-71.15872835,NA
Betty White-Paws (Betty),Austrailian Labradoodle,"(42.38909654, -71.13104197)",-71.13104197,-71.13104197,Neighborhood Nine
Amie,Chihuahua Mix,"(42.37904091, -71.15033815)",-71.15033815,-71.15033815,Strawberry Hill
Marfa,Pit Bull,"(42.39656294, -71.12909489)",-71.12909489,-71.12909489,North Cambridge
Daisy,Pug,"(42.36174637, -71.10825012)",-71.10825012,-71.10825012,Cambridgeport
Cisco,Labradoddle,"(42.38227019, -71.14370697)",-71.14370697,-71.14370697,West Cambridge
Dodger,Australian Shepherd,"(42.36927213, -71.11058069)",-71.11058069,-71.11058069,Mid-Cambridge
Isis,Staffordshire Terr Mix,"(42.367094, -71.08258156)",-71.08258156,-71.08258156,East Cambridge
Biscuit Grape Juice,"Coonhound ,Tree Walker","(42.38279455, -71.11693457)",-71.11693457,-71.11693457,Agassiz
Lyra,English Pointer,"(42.38208106, -71.13043417)",-71.13043417,-71.13043417,Neighborhood Nine
Mingus,Mix,"(42.39537339, -71.13411169)",-71.13411169,-71.13411169,North Cambridge
Boof,Pit Bull,"(42.37406794, -71.08984108)",-71.08984108,-71.08984108,Wellington-Harrington
Dante,Pug,"(42.38256167, -71.13910291)",-71.13910291,-71.13910291,West Cambridge
Max,Pomeranian,"(42.36897995, -71.0930687)",-71.0930687,-71.0930687,Wellington-Harrington
Tilly,Cairn Terrier,"(42.37734364, -71.13852258)",-71.13852258,-71.13852258,West Cambridge
Kona,Tibetan Spaniel,"(42.37816087, -71.13709066)",-71.13709066,-71.13709066,West Cambridge
Tippi,Mixed,"(42.37204622, -71.10088797)",-71.10088797,-71.10088797,The Port
Heather,Shetland Sheepdog,"(42.37956965, -71.11984599)",-71.11984599,-71.11984599,Neighborhood Nine
Peanut,Morkie,"(42.37887668, -71.12058381)",-71.12058381,-71.12058381,Neighborhood Nine
Nina,Staffordshire Terrier,"(42.3686161, -71.09427552)",-71.09427552,-71.09427552,Wellington-Harrington
Krumpet,Yorkie Poo,"(42.3966562, -71.1284632)",-71.1284632,-71.1284632,North Cambridge
Eddie,Boxer Mix,"(42.3658241, -71.09475939)",-71.09475939,-71.09475939,The Port
Ellie,American Staffordshire Terrier,"(42.40045051, -71.13748372)",-71.13748372,-71.13748372,North Cambridge
Sadie,French Bulldog,"(42.38452472, -71.13925291)",-71.13925291,-71.13925291,West Cambridge
Zoe,Terrier,"(42.37268716, -71.09805382)",-71.09805382,-71.09805382,Wellington-Harrington
Moty,Miniature Poodle,"(42.37667431, -71.13279644)",-71.13279644,-71.13279644,West Cambridge
Cody,Mix,"(42.39383118, -71.14167627)",-71.14167627,-71.14167627,North Cambridge
Sparkle,Miniature Poodle,"(42.38624774, -71.13359328)",-71.13359328,-71.13359328,Neighborhood Nine
Bubbles,Pug,"(42.40005856, -71.14169266)",-71.14169266,-71.14169266,North Cambridge
Bella,Shep,"(42.3799433, -71.1153758)",-71.1153758,-71.1153758,Agassiz
Lil Bear,Bichon Frise,"(42.397098, -71.13044531)",-71.13044531,-71.13044531,North Cambridge
Louie,Golden Retriever,"(42.38170116, -71.13276283)",-71.13276283,-71.13276283,Neighborhood Nine
Gibson,Australian Shepherd,"(42.37349459, -71.10933158)",-71.10933158,-71.10933158,Mid-Cambridge
Lucy,Shep Mix,"(42.38014183, -71.1149718)",-71.1149718,-71.1149718,Agassiz
Olive,French Bulldog,"(42.39895247, -71.13580324)",-71.13580324,-71.13580324,North Cambridge
Oscar,Irish Water Spaniel,"(42.38822218, -71.11806973)",-71.11806973,-71.11806973,Neighborhood Nine
Pearl,Cavalier King Charles Spaniel,"(42.39337859, -71.12809428)",-71.12809428,-71.12809428,North Cambridge
Colby,Golden Retriever,"(42.38193085, -71.13612571)",-71.13612571,-71.13612571,West Cambridge
Fredi,,"(42.38849496, -71.11993901)",-71.11993901,-71.11993901,North Cambridge
Oso,Golden Retriever,"(42.38212406, -71.11538105)",-71.11538105,-71.11538105,Agassiz
Panda,French Bulldog,"(42.3727133, -71.09049763)",-71.09049763,-71.09049763,Wellington-Harrington
Petula,Pug,"(42.38474433, -71.12864427)",-71.12864427,-71.12864427,Neighborhood Nine
Hazel,Australian Cattle Dog,"(42.38043863, -71.11130084)",-71.11130084,-71.11130084,Agassiz
Sadie,Labrador Retriever Mix,"(42.39485816, -71.12908001)",-71.12908001,-71.12908001,North Cambridge
Rori,Beagle,"(42.38868804, -71.12120678)",-71.12120678,-71.12120678,Neighborhood Nine
Daisy,POODLE MIX,"(42.37934643, -71.14882891)",-71.14882891,-71.14882891,Strawberry Hill
Stella,Morkie,"(42.39318316, -71.14673104)",-71.14673104,-71.14673104,North Cambridge
Rosco,Boxer/Pit Mix,"(42.36874093, -71.08354009)",-71.08354009,-71.08354009,East Cambridge
Maki,Sato,"(42.37083943, -71.10306487)",-71.10306487,-71.10306487,Mid-Cambridge
Lola,Yorksire Terrier,"(42.36882306, -71.09845278)",-71.09845278,-71.09845278,The Port
Sugar,Terrier,"(42.39173447, -71.13563156)",-71.13563156,-71.13563156,North Cambridge
Hanna,Terrier Mix,"(42.37514271, -71.13433956)",-71.13433956,-71.13433956,West Cambridge
Bingo,Jack Russell Terrier Mix,"(42.39662678, -71.13044843)",-71.13044843,-71.13044843,North Cambridge
Nomad,Shiba Inu,"(42.39152507, -71.1275798)",-71.1275798,-71.1275798,North Cambridge
Puck,Pug,"(42.3731265, -71.0998042)",-71.0998042,-71.0998042,The Port
Daisy,Staffordshire Terr,"(42.37666707, -71.1215355)",-71.1215355,-71.1215355,Neighborhood Nine
Venus,Border Terrier Mix,"(42.38174825, -71.14258784)",-71.14258784,-71.14258784,West Cambridge
Oscar,Labrador Retriever,"(42.39325946, -71.15796787)",-71.15796787,-71.15796787,Cambridge Highlands
Pancake,Jack Russell Terrier Mix,"(42.3979406, -71.13059662)",-71.13059662,-71.13059662,North Cambridge
Siren,Cavapoo,"(42.39613167, -71.12621731)",-71.12621731,-71.12621731,North Cambridge
Lulu,Nova Scotia Duck Tolling Retriever,"(42.38762082, -71.13540552)",-71.13540552,-71.13540552,Neighborhood Nine
Rosie,Labrador Retriever,"(42.36885813, -71.10794717)",-71.10794717,-71.10794717,Mid-Cambridge
Rufus,English Bulldog,"(42.3659026, -71.10380096)",-71.10380096,-71.10380096,Mid-Cambridge
Maisy,MALTESE MX,"(42.39003511, -71.13411493)",-71.13411493,-71.13411493,Neighborhood Nine
Lola,Dachshund,"(42.38471018, -71.13930267)",-71.13930267,-71.13930267,Neighborhood Nine
Arlo,Golden Retriever,"(42.36806896, -71.09307606)",-71.09307606,-71.09307606,Wellington-Harrington
Hana,Chihuahua,"(42.38075532, -71.15405082)",-71.15405082,-71.15405082,Strawberry Hill
Baxter (Bagle),Beagle,"(42.38866393, -71.1429845)",-71.1429845,-71.1429845,Cambridge Highlands
Behr,Labrador Retriver,"(42.39140163, -71.13166626)",-71.13166626,-71.13166626,North Cambridge
Zuni Bear,Australian Shepherd,"(42.37539696, -71.14999308)",-71.14999308,-71.14999308,Strawberry Hill
Shadow,German Shepherd,"(42.36938142, -71.09224325)",-71.09224325,-71.09224325,Wellington-Harrington
Travis,Golden Retriever,"(42.388583, -71.13863129)",-71.13863129,-71.13863129,Neighborhood Nine
Axel,Mountain Cur Mix,"(42.38683786, -71.13079509)",-71.13079509,-71.13079509,Neighborhood Nine
Bailey,Golden Retriever,"(42.38260348, -71.12794528)",-71.12794528,-71.12794528,Neighborhood Nine
Pluto,Pug,"(42.36760875, -71.10428026)",-71.10428026,-71.10428026,Mid-Cambridge
Jessie,Cockerpoo,"(42.36981083, -71.09475138)",-71.09475138,-71.09475138,Wellington-Harrington
Starbuck,Siberian Husky,"(42.36975293, -71.11181677)",-71.11181677,-71.11181677,Riverside
Kuro,Mix,"(42.39184708, -71.13788256)",-71.13788256,-71.13788256,North Cambridge
Mooqa,Toy Poodle,"(42.36659063, -71.10512708)",-71.10512708,-71.10512708,Cambridgeport
Bear,Bernese Mountain Dog,"(42.38115842, -71.11646119)",-71.11646119,-71.11646119,Agassiz
Madison,Labrador Retriever,"(42.36618263, -71.10767769)",-71.10767769,-71.10767769,Riverside
Berkeley,Golden Retriever,"(42.38145353, -71.11403236)",-71.11403236,-71.11403236,Agassiz
Tito,French Bulldog,"(42.35856688, -71.1110903)",-71.1110903,-71.1110903,Cambridgeport
Dot,Pit Bull,"(42.36989991, -71.09474146)",-71.09474146,-71.09474146,Wellington-Harrington
Webster,Great Dane,"(42.38209946, -71.11912131)",-71.11912131,-71.11912131,Agassiz
Jackson,Rhodesian Ridgeback,"(42.38180769, -71.12835319)",-71.12835319,-71.12835319,West Cambridge
Moxie,Shih Tzu,"(42.3843799, -71.13691794)",-71.13691794,-71.13691794,West Cambridge
Dior,Pit Bull,"(42.36416743, -71.08205782)",-71.08205782,-71.08205782,East Cambridge
Tazo,Australian Shepherd,"(42.37682367, -71.10984466)",-71.10984466,-71.10984466,Mid-Cambridge
Copernico,Golden Retriever,"(42.3683391, -71.08574015)",-71.08574015,-71.08574015,East Cambridge
Twizzly,Chow Chow,"(42.37467992, -71.12353041)",-71.12353041,-71.12353041,West Cambridge
Bonnie,Miniature Pinscher,"(42.3738498, -71.1248656)",-71.1248656,-71.1248656,West Cambridge
Miss Elliott,Eng Bull Dog,"(42.39915924, -71.13489686)",-71.13489686,-71.13489686,North Cambridge
Orsin Riley,Pug,"(42.36691828, -71.09276539)",-71.09276539,-71.09276539,The Port
Dante,Chihuahua,"(42.37856076, -71.15189454)",-71.15189454,-71.15189454,Strawberry Hill
Louie,Dachshund,"(42.38218824, -71.13343753)",-71.13343753,-71.13343753,West Cambridge
Amigo,Chihuahua,"(42.3723129, -71.08468531)",-71.08468531,-71.08468531,East Cambridge
Gizmo,Cairn Terrier,"(42.37687934, -71.13027113)",-71.13027113,-71.13027113,West Cambridge
Jasper,Australian Shepherd,"(42.37711035, -71.11169437)",-71.11169437,-71.11169437,Agassiz
Maisy,Plott Hound,"(42.38080497, -71.14014772)",-71.14014772,-71.14014772,West Cambridge
Brownie,German Shepherd Mix,"(42.35939689, -71.11047347)",-71.11047347,-71.11047347,Cambridgeport
Jasper,Pomeranian Mix,"(42.39111491, -71.14728414)",-71.14728414,-71.14728414,Cambridge Highlands
Walter,Bearded Collie,"(42.38554049, -71.13462889)",-71.13462889,-71.13462889,Neighborhood Nine
Skye,Italian Greyhould,"(42.36008554, -71.10770609)",-71.10770609,-71.10770609,Cambridgeport
Sumo,Pug,"(42.36657394, -71.11269552)",-71.11269552,-71.11269552,Riverside
Walter,Great Pyrenees,"(42.37014817, -71.11139873)",-71.11139873,-71.11139873,Mid-Cambridge
Sally,Labrador Retriever,"(42.37419776, -71.14056487)",-71.14056487,-71.14056487,West Cambridge
Bodhi,Yorkshire Terrier,"(42.38887629, -71.11933399)",-71.11933399,-71.11933399,Neighborhood Nine
Romeo,Miniature Schnauzer,"(42.37197422, -71.08840804)",-71.08840804,-71.08840804,Wellington-Harrington
Max,Puggle,"(42.37166522, -71.08277832)",-71.08277832,-71.08277832,East Cambridge
Woody,Golden Retriever Mix,"(42.36235996, -71.10453517)",-71.10453517,-71.10453517,Cambridgeport
Stella Kerr,French Bulldog,"(42.39058507, -71.14517195)",-71.14517195,-71.14517195,Cambridge Highlands
Alice,Lab Shepherd Mix,"(42.36194729, -71.10897246)",-71.10897246,-71.10897246,Cambridgeport
Floyd,Cockerpoo,"(42.36750962, -71.09424237)",-71.09424237,-71.09424237,Wellington-Harrington
Coco,Labrador Retriever,"(42.38341268, -71.133143)",-71.133143,-71.133143,Neighborhood Nine
Agnes,French Bull Dog,"(42.38018768, -71.14105348)",-71.14105348,-71.14105348,West Cambridge
Charlie,Korean Jindo,"(42.39608149, -71.14173211)",-71.14173211,-71.14173211,North Cambridge
Bandit,Golden Retriever,"(42.35817771, -71.11122115)",-71.11122115,-71.11122115,Cambridgeport
Shefa,Labradoodle,"(42.38499772, -71.13090486)",-71.13090486,-71.13090486,Neighborhood Nine
Rhubarb Louise Tice,French Bulldog,"(42.37083753, -71.0788071)",-71.0788071,-71.0788071,East Cambridge
Raksha,Border Collie Mix,"(42.36783511, -71.10143257)",-71.10143257,-71.10143257,The Port
Daisy,Boxer,"(42.39986483, -71.12878447)",-71.12878447,-71.12878447,NA
Francis,Bull Terrier,"(42.36835232, -71.08368786)",-71.08368786,-71.08368786,East Cambridge
Kayley,Cairn Terrier,"(42.39111787, -71.12263008)",-71.12263008,-71.12263008,North Cambridge
Dolce Lee,Siberian Husky,"(42.37098301, -71.07170369)",-71.07170369,-71.07170369,East Cambridge
Sammi,German Shepherd,"(42.36940152, -71.09472671)",-71.09472671,-71.09472671,Wellington-Harrington
Beatrice,Boxer Mix,"(42.3707795, -71.07749085)",-71.07749085,-71.07749085,East Cambridge
Mateo,Mixed Breed,"(42.36413576, -71.10492257)",-71.10492257,-71.10492257,Cambridgeport
Beau Kirpalani,Golden Doodle Mini,"(42.38190785, -71.11391851)",-71.11391851,-71.11391851,Agassiz
Kevin,Pug,"(42.37147687, -71.11202834)",-71.11202834,-71.11202834,Mid-Cambridge
Seby,Pomeranian,"(42.37818909, -71.13148791)",-71.13148791,-71.13148791,West Cambridge
Ursa,Mutt,"(42.36530962, -71.08087042)",-71.08087042,-71.08087042,East Cambridge
Mcafee,American Eskimo Dog Mix,"(42.37014209, -71.1037693)",-71.1037693,-71.1037693,Mid-Cambridge
Penelope,Terrier Mix,"(42.38564762, -71.13635636)",-71.13635636,-71.13635636,West Cambridge
Mango,Welsh Corgi - Pembroke,"(42.36057105, -71.11274295)",-71.11274295,-71.11274295,Cambridgeport
Mia,Miniature Pinscher,"(42.3603169, -71.1148187)",-71.1148187,-71.1148187,Cambridgeport
Matisse,Afghan Hound,"(42.36649498, -71.11106532)",-71.11106532,-71.11106532,Riverside
Harper,American Eskimo Spitz,"(42.37512624, -71.11226087)",-71.11226087,-71.11226087,Mid-Cambridge
Wink,Pug,"(42.39413501, -71.14581034)",-71.14581034,-71.14581034,North Cambridge
Bruiser,Pit Bull,"(42.3687772, -71.08378884)",-71.08378884,-71.08378884,East Cambridge
Bailey,Boerboel,"(42.36988915, -71.10792996)",-71.10792996,-71.10792996,Mid-Cambridge
Dewey,Boston Terrier,"(42.36989232, -71.09208326)",-71.09208326,-71.09208326,Wellington-Harrington
Misha,GSD,"(42.37305042, -71.10101326)",-71.10101326,-71.10101326,Mid-Cambridge
Caico,Labrabor Retriever,"(42.36546932, -71.08266231)",-71.08266231,-71.08266231,East Cambridge
Darwin,Labradoddle,"(42.38073249, -71.14353612)",-71.14353612,-71.14353612,West Cambridge
Ginger,Beagle,"(42.36309497, -71.10958435)",-71.10958435,-71.10958435,Riverside
Leo,Golden Retriever,"(42.37867824, -71.12588026)",-71.12588026,-71.12588026,West Cambridge
Xiaoto,Old English Sheepdog,"(42.36866481, -71.07653428)",-71.07653428,-71.07653428,East Cambridge
Lulu,Labrador Retriever,"(42.38004662, -71.13382371)",-71.13382371,-71.13382371,West Cambridge
Pippi,Brittany Mix,"(42.36487749, -71.09665544)",-71.09665544,-71.09665544,The Port
Sal,Greyhound,"(42.39981162, -71.13568567)",-71.13568567,-71.13568567,North Cambridge
Charlie,Mix,"(42.36688461, -71.11409489)",-71.11409489,-71.11409489,Riverside
Eve,Golden Retriever,"(42.40038738, -71.14138727)",-71.14138727,-71.14138727,North Cambridge
Anna,Chihuahua,"(42.36269706, -71.0951626)",-71.0951626,-71.0951626,The Port
Ivy,Golden Retriever,"(42.37516994, -71.1445168)",-71.1445168,-71.1445168,West Cambridge
Bubba Arthur,Yorkshire Terrier / Shih Tzu,"(42.38830956, -71.11874612)",-71.11874612,-71.11874612,Neighborhood Nine
Thistle,Terrier,"(42.39008686, -71.12557606)",-71.12557606,-71.12557606,North Cambridge
Waffles,Great Pyr Mix,"(42.37062591, -71.07841207)",-71.07841207,-71.07841207,East Cambridge
Fenway,Yorksire Terrier,"(42.38207175, -71.14077737)",-71.14077737,-71.14077737,West Cambridge
Aka,Shiba Inu,"(42.38304814, -71.11982833)",-71.11982833,-71.11982833,Neighborhood Nine
Kami,Golden Doodle,"(42.35645566, -71.10844606)",-71.10844606,-71.10844606,Cambridgeport
Teddy,Yorksire Terrier,"(42.37025254, -71.10203135)",-71.10203135,-71.10203135,Mid-Cambridge
Morgan,Coonhound - American Black & Tan,"(42.39044845, -71.1277298)",-71.1277298,-71.1277298,Neighborhood Nine
Andre,Toy Poodle,"(42.36171743, -71.11004316)",-71.11004316,-71.11004316,Cambridgeport
Choloe,Lab Mix,"(42.36110619, -71.10941011)",-71.10941011,-71.10941011,Cambridgeport
Dora,Mix,"(42.39313184, -71.13268771)",-71.13268771,-71.13268771,North Cambridge
Charlie,Boston Terrier Mix,"(42.37061894, -71.10981365)",-71.10981365,-71.10981365,Mid-Cambridge
Peipei,German Shep,"(42.39084336, -71.14341343)",-71.14341343,-71.14341343,Cambridge Highlands
Mercury,Beagle,"(42.38407014, -71.13235876)",-71.13235876,-71.13235876,Neighborhood Nine
Hallie,Havanese,"(42.37030442, -71.10953178)",-71.10953178,-71.10953178,Mid-Cambridge
Bella,Beagle,"(42.37488335, -71.12487083)",-71.12487083,-71.12487083,West Cambridge
Clementine,Lab/Hound Mix,"(42.40068946, -71.13139357)",-71.13139357,-71.13139357,NA
Fizzing Whizbee,Shepherd Collie Mix,"(42.38493514, -71.1293934)",-71.1293934,-71.1293934,Neighborhood Nine
Atticus,Miniature Goldendoodle,"(42.38176686, -71.11983234)",-71.11983234,-71.11983234,Neighborhood Nine
Waffle,Golden Doodle,"(42.37279625, -71.13759221)",-71.13759221,-71.13759221,West Cambridge
Bubak,Cavapoo,"(42.36964376, -71.07517734)",-71.07517734,-71.07517734,East Cambridge
Peanut,Chihuahua,"(42.37626179, -71.15461168)",-71.15461168,-71.15461168,Strawberry Hill
Dixie,Terrier,"(42.37879432, -71.12242005)",-71.12242005,-71.12242005,Neighborhood Nine
Trust,Golden Retriever,"(42.39449213, -71.1568171)",-71.1568171,-71.1568171,Cambridge Highlands
Sasha,Labradoddle,"(42.39873035, -71.13266723)",-71.13266723,-71.13266723,North Cambridge
Skittles,Coton De Tulear,"(42.37472759, -71.08737933)",-71.08737933,-71.08737933,Wellington-Harrington
Julius,Doberman,"(42.37019192, -71.10107104)",-71.10107104,-71.10107104,Mid-Cambridge
Pip,Boxer,"(42.37767291, -71.13910568)",-71.13910568,-71.13910568,West Cambridge
Isabelle,Golden Retriever,"(42.37218729, -71.11049803)",-71.11049803,-71.11049803,Mid-Cambridge
Kendall,Labradoodle,"(42.36606268, -71.08476723)",-71.08476723,-71.08476723,East Cambridge
Mango,Shiba Inu,"(42.38499813, -71.12906892)",-71.12906892,-71.12906892,Neighborhood Nine
Max,Australian Shepherd,"(42.38714912, -71.14373396)",-71.14373396,-71.14373396,Cambridge Highlands
Kona,Cavalier King Charles Spaniel,"(42.38674036, -71.12963286)",-71.12963286,-71.12963286,Neighborhood Nine
Murray,Australian Cattle Dog Mix,"(42.37558177, -71.10169394)",-71.10169394,-71.10169394,Mid-Cambridge
Maisy,Beagle,"(42.36879314, -71.12293428)",-71.12293428,-71.12293428,West Cambridge
Kako,Shih Tzu,"(42.36653048, -71.09894069)",-71.09894069,-71.09894069,The Port
Conrad,Airedale Terrier,"(42.37301506, -71.10522322)",-71.10522322,-71.10522322,Mid-Cambridge
Russel,Labrador Retriever,"(42.37670873, -71.12419677)",-71.12419677,-71.12419677,West Cambridge
Romper,Lab Mix,"(42.37472462, -71.10329873)",-71.10329873,-71.10329873,Mid-Cambridge
Mulder,Catahoula Leopard Dog Mix,"(42.39741889, -71.12955589)",-71.12955589,-71.12955589,North Cambridge
Charlie,Boxer,"(42.37720604, -71.14163976)",-71.14163976,-71.14163976,West Cambridge
Max,Mix,"(42.37040479, -71.11385899)",-71.11385899,-71.11385899,Riverside
Tumble,Labrador Mix,"(42.39304396, -71.13074192)",-71.13074192,-71.13074192,North Cambridge
Liebchen,Bernese Mountain Dog,"(42.38583537, -71.11615854)",-71.11615854,-71.11615854,Agassiz
Luna,Labradoddle,"(42.38674791, -71.13146636)",-71.13146636,-71.13146636,Neighborhood Nine
Chloe,Chihuahua,"(42.380452, -71.1346755)",-71.1346755,-71.1346755,West Cambridge
Bristol,Labrador Retriever,"(42.38491694, -71.13204196)",-71.13204196,-71.13204196,Neighborhood Nine
Maria,Golden Ret,"(42.39317171, -71.14502485)",-71.14502485,-71.14502485,Cambridge Highlands
Mateo,Golden Retriever,"(42.35799372, -71.11277374)",-71.11277374,-71.11277374,Cambridgeport
Milo,Min Pin Mix,"(42.38070206, -71.11581898)",-71.11581898,-71.11581898,Agassiz
Sugar Pie,Labrador Retriever,"(42.37734163, -71.15334608)",-71.15334608,-71.15334608,Strawberry Hill
Ed,Sato,"(42.38293684, -71.13928131)",-71.13928131,-71.13928131,West Cambridge
Luke,Brittany Spaniel,"(42.36497219, -71.10975269)",-71.10975269,-71.10975269,Riverside
Pippin,Wheaton Terrier,"(42.37101809, -71.09465469)",-71.09465469,-71.09465469,Wellington-Harrington
Bella,Pit Bull,"(42.37155402, -71.08028364)",-71.08028364,-71.08028364,East Cambridge
Frankie,Mix,"(42.38135248, -71.14243613)",-71.14243613,-71.14243613,West Cambridge
Beau,Chihuahua,"(42.36045599, -71.11007918)",-71.11007918,-71.11007918,Cambridgeport
Osiris,Poodle,"(42.39796142, -71.13379337)",-71.13379337,-71.13379337,North Cambridge
Abby,Labrador Retiever,"(42.3737059, -71.13576149)",-71.13576149,-71.13576149,West Cambridge
Milo,Labrador Mix,"(42.39449871, -71.13182172)",-71.13182172,-71.13182172,North Cambridge
Abby,Terrier Mix,"(42.37866207, -71.15360759)",-71.15360759,-71.15360759,Strawberry Hill
Tyson,Mastiff,"(42.39462718, -71.13730032)",-71.13730032,-71.13730032,North Cambridge
Penelope,Yorkshire Terrier,"(42.37494243, -71.1060669)",-71.1060669,-71.1060669,Mid-Cambridge
Riggins,Labrador Retriever,"(42.37763959, -71.12585393)",-71.12585393,-71.12585393,West Cambridge
Sebastian,Cocker Spaniel,"(42.35840053, -71.1095166)",-71.1095166,-71.1095166,Cambridgeport
Dandelion,English Shepherd,"(42.36892568, -71.08452181)",-71.08452181,-71.08452181,East Cambridge
Mr. Murphy,Terrier Mix,"(42.39117481, -71.12292739)",-71.12292739,-71.12292739,NA
Sasha,Border Collie,"(42.39943978, -71.13365837)",-71.13365837,-71.13365837,North Cambridge
Popcorn,Schnauzer,"(42.40026789, -71.13624734)",-71.13624734,-71.13624734,North Cambridge
Hunter,German Shorthair Pointer,"(42.35812921, -71.1128532)",-71.1128532,-71.1128532,Cambridgeport
Skye,Austrailian Shep Mix,"(42.35880775, -71.10637989)",-71.10637989,-71.10637989,Cambridgeport
Mr. Calvin Fluffington,Shih Tzu,"(42.37097818, -71.10846698)",-71.10846698,-71.10846698,Mid-Cambridge
Ramsey,German Shepherd Mix,"(42.39512052, -71.13219212)",-71.13219212,-71.13219212,North Cambridge
Austin,Labradoddle,"(42.38864389, -71.12492942)",-71.12492942,-71.12492942,Neighborhood Nine
Dash,Silky Terrier,"(42.3977142, -71.13436723)",-71.13436723,-71.13436723,North Cambridge
Perseus,Hound,"(42.39090299, -71.13010443)",-71.13010443,-71.13010443,North Cambridge
Jack,Pointer,"(42.37109698, -71.11118983)",-71.11118983,-71.11118983,Mid-Cambridge
Orbit,Australian Terrier,"(42.38555466, -71.13941722)",-71.13941722,-71.13941722,Neighborhood Nine
Custos,MIXED,"(42.36587356, -71.10594934)",-71.10594934,-71.10594934,Mid-Cambridge
Vayu,Standard Poodle,"(42.39329909, -71.12406132)",-71.12406132,-71.12406132,North Cambridge
Chica,Terrier,"(42.36774994, -71.10096973)",-71.10096973,-71.10096973,The Port
Copper,Beagle Mix,"(42.3843769, -71.14264117)",-71.14264117,-71.14264117,West Cambridge
Dante,Rottweiler,"(42.38418447, -71.1277468)",-71.1277468,-71.1277468,Neighborhood Nine
Oreo,Maltese,"(42.37189774, -71.07767137)",-71.07767137,-71.07767137,East Cambridge
Daisy,Bouvier Des Flandres,"(42.38056118, -71.13292876)",-71.13292876,-71.13292876,West Cambridge
Watson,Bor/Collie Mix,"(42.36630977, -71.0966063)",-71.0966063,-71.0966063,The Port
Meemee,Terrier,"(42.3688519, -71.07325214)",-71.07325214,-71.07325214,East Cambridge
Rosie,Miniature Poodle,"(42.387715, -71.12087839)",-71.12087839,-71.12087839,Neighborhood Nine
Tiny,Feist,"(42.36495887, -71.1100577)",-71.1100577,-71.1100577,Riverside
Momo,Pit Bull Terrier,"(42.39795708, -71.13385832)",-71.13385832,-71.13385832,North Cambridge
Sherlock,Bernese Mountain Dog,"(42.39114503, -71.12764135)",-71.12764135,-71.12764135,North Cambridge
Bumper,Labradoddle,"(42.37569827, -71.10460561)",-71.10460561,-71.10460561,Mid-Cambridge
Fred,Sheepdog,"(42.37666236, -71.13289747)",-71.13289747,-71.13289747,West Cambridge
Barkley,Mix,"(42.37457961, -71.14673876)",-71.14673876,-71.14673876,West Cambridge
Spike,Chihuahua,"(42.36684924, -71.11262812)",-71.11262812,-71.11262812,Riverside
Rider,Labrador Retriever,"(42.37529233, -71.09867407)",-71.09867407,-71.09867407,Wellington-Harrington
Mil,Labrabor Mix,"(42.35900265, -71.11178445)",-71.11178445,-71.11178445,Cambridgeport
Zoe,Whippet,"(42.36336173, -71.10464518)",-71.10464518,-71.10464518,Cambridgeport
Honey Lemon,Golden Retriever,"(42.37203641, -71.09849422)",-71.09849422,-71.09849422,Wellington-Harrington
Jasmine,Border Collie Mix,"(42.37186149, -71.10054145)",-71.10054145,-71.10054145,The Port
Yoda,French Bulldog,"(42.3968289, -71.14688884)",-71.14688884,-71.14688884,North Cambridge
Bailey,French Bulldog,"(42.36897198, -71.07840314)",-71.07840314,-71.07840314,East Cambridge
Goya,Old English Bull Dog,"(42.38710548, -71.11768879)",-71.11768879,-71.11768879,Agassiz
Lettie,Schnauzer,"(42.38921863, -71.13409082)",-71.13409082,-71.13409082,Neighborhood Nine
Gus,Lab Basset Mix,"(42.36336421, -71.11114361)",-71.11114361,-71.11114361,Cambridgeport
Mac,LABRADOR RETRIEVER,"(42.37245686, -71.09655233)",-71.09655233,-71.09655233,Wellington-Harrington
Maya,Cockapoo,"(42.39307138, -71.15587751)",-71.15587751,-71.15587751,Cambridge Highlands
Skippy,Schipperke,"(42.37422388, -71.10090561)",-71.10090561,-71.10090561,Mid-Cambridge
Hunter,Weimaramer,"(42.36180232, -71.10805598)",-71.10805598,-71.10805598,Cambridgeport
Bear,Labrador Retriever,"(42.37885147, -71.13207954)",-71.13207954,-71.13207954,West Cambridge
Lily,Labrador Retriver,"(42.38115232, -71.12152513)",-71.12152513,-71.12152513,Neighborhood Nine
Charlotte,Belgian Shepherd,"(42.36289488, -71.11122257)",-71.11122257,-71.11122257,Cambridgeport
Ali Mae,Basenji,"(42.38922247, -71.12320869)",-71.12320869,-71.12320869,North Cambridge
Missy,Yorkie Terrier,"(42.37064595, -71.08461516)",-71.08461516,-71.08461516,East Cambridge
Mochi,Golden Retriever,"(42.37981467, -71.13813402)",-71.13813402,-71.13813402,West Cambridge
Phoebe,Havanese,"(42.37774804, -71.1400201)",-71.1400201,-71.1400201,West Cambridge
Noro,Soft Coat Wheaten Terr,"(42.39400312, -71.13459165)",-71.13459165,-71.13459165,North Cambridge
Ginger,Spitz Mix,"(42.38257344, -71.13914881)",-71.13914881,-71.13914881,West Cambridge
Buddy,Pomerainian,"(42.36940329, -71.10333769)",-71.10333769,-71.10333769,Mid-Cambridge
Ruby,Jack Russel Terrier,"(42.37068651, -71.1013716)",-71.1013716,-71.1013716,Mid-Cambridge
Duchess,German Shepherd,"(42.37924983, -71.11041949)",-71.11041949,-71.11041949,Agassiz
Emma,Mix,"(42.36428074, -71.1151401)",-71.1151401,-71.1151401,Riverside
Ayler,German Shepherd,"(42.38564731, -71.13103808)",-71.13103808,-71.13103808,Neighborhood Nine
Winston,Shih Tzu,"(42.37196346, -71.07356161)",-71.07356161,-71.07356161,East Cambridge
Elmo,PAPILLON,"(42.36010043, -71.10351123)",-71.10351123,-71.10351123,Cambridgeport
Charlie,Golden Retriever,"(42.36915676, -71.10131412)",-71.10131412,-71.10131412,Mid-Cambridge
Katie,Labraddoodle,"(42.39781421, -71.13226382)",-71.13226382,-71.13226382,North Cambridge
Rhiannon,Australian Cattle Dog Mix,"(42.37390651, -71.09582012)",-71.09582012,-71.09582012,Wellington-Harrington
Bodie,Goldendoodle,"(42.37980851, -71.12260712)",-71.12260712,-71.12260712,Neighborhood Nine
Sophie,German Shepherd,"(42.37825794, -71.14146891)",-71.14146891,-71.14146891,West Cambridge
Bruno,Dalmation,"(42.39354342, -71.15853318)",-71.15853318,-71.15853318,Cambridge Highlands
Perle,Australian Shepherd,"(42.37212078, -71.10189932)",-71.10189932,-71.10189932,Mid-Cambridge
Layla,Golden Doodle,"(42.37083829, -71.1192315)",-71.1192315,-71.1192315,Riverside
Tikaani,Alaskan Malamute,"(42.37956973, -71.11010167)",-71.11010167,-71.11010167,Agassiz
Bailey,Golden Retriever,"(42.39203781, -71.1204694)",-71.1204694,-71.1204694,North Cambridge
Mila,York Terr,"(42.3770591, -71.15480477)",-71.15480477,-71.15480477,Strawberry Hill
Darwin,Shih Tzu,"(42.38244084, -71.11963521)",-71.11963521,-71.11963521,Neighborhood Nine
Luna,Labrador Retriever,"(42.39449678, -71.12860906)",-71.12860906,-71.12860906,North Cambridge
Shelby,German Shepherd Mix,"(42.36553483, -71.11142629)",-71.11142629,-71.11142629,Riverside
Carson,Mix,"(42.38291716, -71.14332889)",-71.14332889,-71.14332889,West Cambridge
Ruby,Collie Mix,"(42.37061425, -71.12180745)",-71.12180745,-71.12180745,West Cambridge
Jezebel,Cockerpoo,"(42.36741535, -71.11004945)",-71.11004945,-71.11004945,Riverside
Dogbeth,Mix,"(42.38024199, -71.13606714)",-71.13606714,-71.13606714,West Cambridge
Lily,Golden Retriever,"(42.37556372, -71.10721565)",-71.10721565,-71.10721565,Mid-Cambridge
Maya,Mix,"(42.38587339, -71.12676502)",-71.12676502,-71.12676502,Neighborhood Nine
Raegan,Chihuahua,"(42.38571552, -71.13665378)",-71.13665378,-71.13665378,Neighborhood Nine
Milly,Labrador Retriever Mix,"(42.36417774, -71.10809952)",-71.10809952,-71.10809952,Riverside
Buttercup,Mix,"(42.38988695, -71.12405141)",-71.12405141,-71.12405141,North Cambridge
Stewie,Pomeranian,"(42.3699149, -71.09913769)",-71.09913769,-71.09913769,Mid-Cambridge
Ewok Kelebek,Papillon,"(42.37743718, -71.14944433)",-71.14944433,-71.14944433,Strawberry Hill
Maddy,Border Collie,"(42.37342293, -71.08403415)",-71.08403415,-71.08403415,East Cambridge
Cauchy,Border Collie,"(42.3766841, -71.11289075)",-71.11289075,-71.11289075,Mid-Cambridge
Giles,Chi Hua Hua Mix,"(42.38511202, -71.13994362)",-71.13994362,-71.13994362,West Cambridge
Hannah,German Shepherd/Lab,"(42.36895305, -71.10381496)",-71.10381496,-71.10381496,Mid-Cambridge
Purple Rainey,French Bulldog,"(42.37270368, -71.09981878)",-71.09981878,-71.09981878,Wellington-Harrington
Katie,Beagle,"(42.35487443, -71.09624723)",-71.09624723,-71.09624723,Area 2/MIT
Annie,Dachshund,"(42.39381438, -71.12811179)",-71.12811179,-71.12811179,North Cambridge
Zeus,Alaskan Malamute Mix,"(42.38902919, -71.13334614)",-71.13334614,-71.13334614,North Cambridge
Opie,Dachshund,"(42.37061229, -71.09937665)",-71.09937665,-71.09937665,The Port
Fidel,Cavalier King Charles Spaniel,"(42.37688187, -71.14819838)",-71.14819838,-71.14819838,West Cambridge
Gila,Sheltie,"(42.38227946, -71.13276926)",-71.13276926,-71.13276926,Neighborhood Nine
Gunther,German Shepherd,"(42.36419219, -71.11282971)",-71.11282971,-71.11282971,Riverside
Lilly,Labrador Retriever Mix,"(42.35981999, -71.1031891)",-71.1031891,-71.1031891,Cambridgeport
Missey Beans,Yorkie,"(42.39776771, -71.14183478)",-71.14183478,-71.14183478,North Cambridge
Wynne,Australian Terrier,"(42.39812783, -71.13499198)",-71.13499198,-71.13499198,North Cambridge
Lukla,German Shepherd,"(42.39371371, -71.15717506)",-71.15717506,-71.15717506,Cambridge Highlands
Garland,Labrador Retriever,"(42.36999058, -71.0954443)",-71.0954443,-71.0954443,Wellington-Harrington
Kovu,Boxer Mix,"(42.38359584, -71.12780346)",-71.12780346,-71.12780346,Neighborhood Nine
Oscar,Springer Spaniel,"(42.37760728, -71.14206549)",-71.14206549,-71.14206549,West Cambridge
Gracie,Labrador Retriever,"(42.39619681, -71.13391743)",-71.13391743,-71.13391743,North Cambridge
Kiyala,Havanese,"(42.38084571, -71.11838059)",-71.11838059,-71.11838059,Agassiz
Athena,Shep,"(42.36632591, -71.09219321)",-71.09219321,-71.09219321,The Port
Sibley,Labradoodle,"(42.38778689, -71.1262431)",-71.1262431,-71.1262431,Neighborhood Nine
Pilot,Labrador Retriever,"(42.37525866, -71.10489701)",-71.10489701,-71.10489701,Mid-Cambridge
Kobe,Sheltie,"(42.39087295, -71.1258742)",-71.1258742,-71.1258742,Neighborhood Nine
Yoda,Chihuahua,"(42.37569939, -71.15406824)",-71.15406824,-71.15406824,Strawberry Hill
Stuart Little,Dachshund,"(42.38230517, -71.13395881)",-71.13395881,-71.13395881,West Cambridge
Russet,Chow,"(42.37000625, -71.09487102)",-71.09487102,-71.09487102,The Port
Pudding,Cavalier King Charles Spaniel,"(42.38684755, -71.11621577)",-71.11621577,-71.11621577,NA
Jake,Australian Terrier,"(42.38535575, -71.11630433)",-71.11630433,-71.11630433,Agassiz
Della Wartak,Sato Puerto Rico,"(42.37557145, -71.10695648)",-71.10695648,-71.10695648,Mid-Cambridge
Bard,German Shepard Mix,"(42.38473292, -71.1298256)",-71.1298256,-71.1298256,Neighborhood Nine
Tamarin,Tosa Inu,"(42.36507664, -71.09852618)",-71.09852618,-71.09852618,The Port
Watson,Yorkshire Terrier,"(42.38237641, -71.12038534)",-71.12038534,-71.12038534,Neighborhood Nine
Georgie,Cocker Spaniel,"(42.38010544, -71.15616601)",-71.15616601,-71.15616601,Strawberry Hill
Taza,Collie,"(42.37215479, -71.12712975)",-71.12712975,-71.12712975,West Cambridge
Sooke,Cocker Spaniel,"(42.38019651, -71.13839893)",-71.13839893,-71.13839893,West Cambridge
Phoenix,Poodle,"(42.3784021, -71.14202003)",-71.14202003,-71.14202003,West Cambridge
Olive,Labrador Retriever,"(42.38383922, -71.11639452)",-71.11639452,-71.11639452,Agassiz
Jindori,Jindo,"(42.36935243, -71.11370885)",-71.11370885,-71.11370885,Mid-Cambridge
Boysie,Beagle,"(42.36178683, -71.10378249)",-71.10378249,-71.10378249,Cambridgeport
Abby,Boxer,"(42.39343841, -71.14691428)",-71.14691428,-71.14691428,Cambridge Highlands
Coco,Labradoddle,"(42.37684209, -71.13138964)",-71.13138964,-71.13138964,West Cambridge
Lizzy,Golden Retriever,"(42.36876664, -71.08453801)",-71.08453801,-71.08453801,East Cambridge
Foster,Manchester Terrier,"(42.37884388, -71.11567134)",-71.11567134,-71.11567134,Agassiz
Leo,Golden Retriever,"(42.37719108, -71.12515472)",-71.12515472,-71.12515472,West Cambridge
Rosie,Terrier Mix,"(42.37199303, -71.08464404)",-71.08464404,-71.08464404,East Cambridge
Bow,Poodle,"(42.3907723, -71.12196488)",-71.12196488,-71.12196488,North Cambridge
Rutabaga,Newfoundland,"(42.36822643, -71.08662938)",-71.08662938,-71.08662938,East Cambridge
Amigo,Chihuahua,"(42.37116503, -71.10908986)",-71.10908986,-71.10908986,Mid-Cambridge
Mia,MIXED,"(42.39445536, -71.14388534)",-71.14388534,-71.14388534,North Cambridge
Louie,Puggle,"(42.36801542, -71.1098706)",-71.1098706,-71.1098706,Riverside
Francis,Jack Russell Terrier,"(42.36784969, -71.08344163)",-71.08344163,-71.08344163,East Cambridge
Lulu,Aust Shep Mix,"(42.35996307, -71.10925028)",-71.10925028,-71.10925028,Cambridgeport
Ramses,Alaskan Klee Kai,"(42.37048417, -71.10222161)",-71.10222161,-71.10222161,Mid-Cambridge
Alba,Labradoddle,"(42.38509985, -71.12012637)",-71.12012637,-71.12012637,Agassiz
Oz,Cairn Terrier,"(42.37641382, -71.15540562)",-71.15540562,-71.15540562,Strawberry Hill
Dora,Brittany Spaniel,"(42.38475039, -71.1334965)",-71.1334965,-71.1334965,West Cambridge
Finn,Labrador Retriever,"(42.39131022, -71.12984743)",-71.12984743,-71.12984743,North Cambridge
Orange,Pug,"(42.37379749, -71.09679557)",-71.09679557,-71.09679557,NA
Gnocchi,Belgian Malinois,"(42.39209187, -71.12922173)",-71.12922173,-71.12922173,North Cambridge
Pumba,Australian Shepherd,"(42.38332692, -71.13935237)",-71.13935237,-71.13935237,West Cambridge
Raylan,Hound Mix,"(42.39132319, -71.13998952)",-71.13998952,-71.13998952,Neighborhood Nine
Ben,Border Collie,"(42.3611469, -71.10672353)",-71.10672353,-71.10672353,Cambridgeport
Sequoia,German Shepherd,"(42.38696247, -71.13143909)",-71.13143909,-71.13143909,Neighborhood Nine
Rosie,Miniature Schnauzer,"(42.38129338, -71.11161694)",-71.11161694,-71.11161694,Agassiz
Cody,Harrier,"(42.39523606, -71.13928449)",-71.13928449,-71.13928449,North Cambridge
Kane,American Bully,"(42.4008162, -71.15072938)",-71.15072938,-71.15072938,North Cambridge
Zenite,Yorksire Terrier,"(42.37563199, -71.09628173)",-71.09628173,-71.09628173,Wellington-Harrington
Thea,American Eskimo,"(42.38519128, -71.12279716)",-71.12279716,-71.12279716,Neighborhood Nine
Barney,Terrier Mix,"(42.39850214, -71.13934)",-71.13934,-71.13934,North Cambridge
Gus,Poodle,"(42.38173994, -71.13505514)",-71.13505514,-71.13505514,West Cambridge
Zeus,Pit Bull,"(42.37045366, -71.09522876)",-71.09522876,-71.09522876,Wellington-Harrington
Dante,Yorksire Terrier,"(42.37709407, -71.10760811)",-71.10760811,-71.10760811,Mid-Cambridge
Iris,Chihuahua,"(42.36054567, -71.10948856)",-71.10948856,-71.10948856,Cambridgeport
Baci,LABRADOR Retriever,"(42.37565981, -71.14313937)",-71.14313937,-71.14313937,West Cambridge
Arlo,Spanish Water Dog,"(42.36428594, -71.11021404)",-71.11021404,-71.11021404,Cambridgeport
Sandy,Wheaten Terrier,"(42.38136358, -71.11381417)",-71.11381417,-71.11381417,Agassiz
Marley,Labrador Retriever,"(42.36828275, -71.10105394)",-71.10105394,-71.10105394,The Port
Jaya,Bichon Frise,"(42.36856141, -71.07998818)",-71.07998818,-71.07998818,East Cambridge
Daisa,Dachshund,"(42.37399627, -71.0914282)",-71.0914282,-71.0914282,Wellington-Harrington
Mime,Bernese Mountain Dog,"(42.36877673, -71.09738552)",-71.09738552,-71.09738552,The Port
Rusty,Jack Russel Terrier,"(42.37090462, -71.10438102)",-71.10438102,-71.10438102,Mid-Cambridge
Georgia,Labrador Retriever Mix,"(42.39000728, -71.1214365)",-71.1214365,-71.1214365,North Cambridge
Wesley,Spaniel,"(42.37363675, -71.09832978)",-71.09832978,-71.09832978,Wellington-Harrington
Max,Chihuahua,"(42.39148004, -71.14475261)",-71.14475261,-71.14475261,Cambridge Highlands
Pica,Cocker Spanial,"(42.37542102, -71.13179387)",-71.13179387,-71.13179387,West Cambridge
Jessie,Portuguese Water Dog,"(42.35560559, -71.10785837)",-71.10785837,-71.10785837,Cambridgeport
Jackson,Jack Russell Terrier,"(42.37072336, -71.10152096)",-71.10152096,-71.10152096,Mid-Cambridge
Maggie,Wheaton Terrier,"(42.38009323, -71.13976692)",-71.13976692,-71.13976692,West Cambridge
Joe,Terrier,"(42.38951853, -71.12887075)",-71.12887075,-71.12887075,North Cambridge
Jack,Jack Russel,"(42.37761566, -71.12858753)",-71.12858753,-71.12858753,West Cambridge
Lucy,Shih Tzu/ Poodle,"(42.3797245, -71.11783795)",-71.11783795,-71.11783795,Agassiz
Captin,Labrador Retriever,"(42.36640422, -71.09055089)",-71.09055089,-71.09055089,Wellington-Harrington
Hanna,Cocker Spaniel,"(42.38398573, -71.12285628)",-71.12285628,-71.12285628,Neighborhood Nine
Margaret,Jack Russel Terrier,"(42.37209049, -71.13966294)",-71.13966294,-71.13966294,West Cambridge
Roxy,Mix,"(42.37235736, -71.08734177)",-71.08734177,-71.08734177,East Cambridge
Yoshi,Silky Terrier,"(42.36675791, -71.09520416)",-71.09520416,-71.09520416,The Port
Buddy,Cocker Spaniel,"(42.36097579, -71.08656205)",-71.08656205,-71.08656205,Area 2/MIT
Millie,Mix,"(42.36210518, -71.11020927)",-71.11020927,-71.11020927,Cambridgeport
Mico,Shepherd Mix,"(42.35955743, -71.10111564)",-71.10111564,-71.10111564,Cambridgeport
Milo,Beagle Mix,"(42.36084316, -71.10601852)",-71.10601852,-71.10601852,Cambridgeport
Winston,BOSTON TERRIER,"(42.38776328, -71.1173911)",-71.1173911,-71.1173911,NA
Cassie,Labrador Retriever,"(42.3772146, -71.12570493)",-71.12570493,-71.12570493,West Cambridge
Kenzie,Cavalier King Charles Spaniel,"(42.39324255, -71.13769217)",-71.13769217,-71.13769217,North Cambridge
Oscar Madison,Golden Doodle,"(42.38472047, -71.11872824)",-71.11872824,-71.11872824,Agassiz
Beasley,Border Collie,"(42.37286775, -71.08371257)",-71.08371257,-71.08371257,East Cambridge
Dixie,Cairn Terrier,"(42.37375549, -71.10919855)",-71.10919855,-71.10919855,Mid-Cambridge
Ione,Labrador Retriever,"(42.38529449, -71.13822924)",-71.13822924,-71.13822924,West Cambridge
Pepe,Maltipoo,"(42.36587277, -71.09149586)",-71.09149586,-71.09149586,The Port
Stanley,Jack Russel Terrier,"(42.37841578, -71.1499471)",-71.1499471,-71.1499471,Strawberry Hill
Max,Tibetan Terrier,"(42.3854622, -71.13434132)",-71.13434132,-71.13434132,Neighborhood Nine
Buffy,Greyhound,"(42.3694148, -71.09187865)",-71.09187865,-71.09187865,Wellington-Harrington
Macy,Siberean Husky,"(42.3720771, -71.10122871)",-71.10122871,-71.10122871,Mid-Cambridge
Oshi,Maltese / Poodle Mix,"(42.39611063, -71.14327022)",-71.14327022,-71.14327022,North Cambridge
Lara,Miniature Dachshund,"(42.38863138, -71.12404703)",-71.12404703,-71.12404703,Neighborhood Nine
Keiko,Cocker Spaniel,"(42.361787, -71.11000938)",-71.11000938,-71.11000938,Cambridgeport
Blaze,English Labrador Retriever,"(42.38395265, -71.13718473)",-71.13718473,-71.13718473,West Cambridge
Nola,Labrador Retriever,"(42.37018416, -71.10539448)",-71.10539448,-71.10539448,Mid-Cambridge
Rosie,Terrier,"(42.38626298, -71.12281756)",-71.12281756,-71.12281756,Neighborhood Nine
Molly,Labrador Retriever,"(42.36443555, -71.10167602)",-71.10167602,-71.10167602,The Port
Hero,Sheltie,"(42.37316169, -71.07719519)",-71.07719519,-71.07719519,East Cambridge
Hendrix,Labrador Retriever,"(42.35726046, -71.11116432)",-71.11116432,-71.11116432,Cambridgeport
Toby,Lab Mix,"(42.36889485, -71.09667713)",-71.09667713,-71.09667713,Wellington-Harrington
Chance,Dachshund,"(42.37762812, -71.15050157)",-71.15050157,-71.15050157,Strawberry Hill
Chloe,Cockerpoo,"(42.37616006, -71.12962798)",-71.12962798,-71.12962798,West Cambridge
Marty,Lab retriever mix,"(42.36966532, -71.08619607)",-71.08619607,-71.08619607,East Cambridge
Atlas,Great Dane,"(42.37523318, -71.09002175)",-71.09002175,-71.09002175,Wellington-Harrington
Rosie,West Highland White Terrier,"(42.37297831, -71.08255333)",-71.08255333,-71.08255333,East Cambridge
Enkidu,Greyhound Mix,"(42.39208766, -71.14744072)",-71.14744072,-71.14744072,Cambridge Highlands
Copper,Nova Scotia Duck Tolling Retriever,"(42.38999233, -71.14551032)",-71.14551032,-71.14551032,Cambridge Highlands
Charlie,Daschund,"(42.37928716, -71.1070171)",-71.1070171,-71.1070171,Agassiz
Sophie,Golden Retriever,"(42.39136445, -71.14441226)",-71.14441226,-71.14441226,Cambridge Highlands
Finn,Bichon Frise Mix,"(42.37003553, -71.1041337)",-71.1041337,-71.1041337,Mid-Cambridge
Murdoch,Yorkshire Terrier,"(42.38533937, -71.13496489)",-71.13496489,-71.13496489,Neighborhood Nine
Maya,Labrador Retriever,"(42.38487748, -71.12966045)",-71.12966045,-71.12966045,Neighborhood Nine
Doctor,Shepherd,"(42.37359266, -71.10030374)",-71.10030374,-71.10030374,Mid-Cambridge
Coriander,Cavalier King Charles Spaniel,"(42.35895312, -71.10519004)",-71.10519004,-71.10519004,Cambridgeport
Chester,Border Terrier,"(42.37714415, -71.12970224)",-71.12970224,-71.12970224,West Cambridge
Clancy,Vizsla,"(42.37183007, -71.10345616)",-71.10345616,-71.10345616,Mid-Cambridge
Sunny,Terrier,"(42.37766681, -71.11061155)",-71.11061155,-71.11061155,Mid-Cambridge
Riley,American Bulldog,"(42.40064783, -71.13514314)",-71.13514314,-71.13514314,North Cambridge
Nacho,Border Collie,"(42.37212944, -71.07542436)",-71.07542436,-71.07542436,East Cambridge
Laika,Dachshund Mix,"(42.37932979, -71.1096504)",-71.1096504,-71.1096504,Agassiz
Ruby,Yorkshire Terrier Mix,"(42.3712867, -71.09989801)",-71.09989801,-71.09989801,The Port
Tosha,Border Collie,"(42.35858301, -71.11480558)",-71.11480558,-71.11480558,Cambridgeport
Jasper,Boston Terrier,"(42.3609341, -71.10845768)",-71.10845768,-71.10845768,Cambridgeport
Ripple,Nova Scotia Duck Tolling Retriever,"(42.37712734, -71.15318738)",-71.15318738,-71.15318738,Strawberry Hill
Muffala,Cocker Spaniel,"(42.37857558, -71.14564761)",-71.14564761,-71.14564761,West Cambridge
Echo,Sato,"(42.38474377, -71.11894932)",-71.11894932,-71.11894932,Agassiz
Huckleberry,Labrador Retriever,"(42.38038336, -71.14023551)",-71.14023551,-71.14023551,West Cambridge
William,Yorksire Terrier,"(42.3645628, -71.09596188)",-71.09596188,-71.09596188,The Port
"Yossarian "" Yo- Yo""",Corgi,"(42.39987796, -71.13077527)",-71.13077527,-71.13077527,North Cambridge
Alex,Bernese Mountain Dog,"(42.38779354, -71.16106849)",-71.16106849,-71.16106849,Strawberry Hill
Henry,French Bulldog,"(42.39615887, -71.14596458)",-71.14596458,-71.14596458,North Cambridge
Charley,Cavapoo,"(42.37319843, -71.07699209)",-71.07699209,-71.07699209,East Cambridge
Kuki,Tibetan Terrier,"(42.39281121, -71.13208504)",-71.13208504,-71.13208504,North Cambridge
Sasha,Bichon Frise,"(42.37819912, -71.14049728)",-71.14049728,-71.14049728,West Cambridge
Zoe,Feist,"(42.36796981, -71.09577937)",-71.09577937,-71.09577937,The Port
Zoetis,Pug,"(42.37560328, -71.09708445)",-71.09708445,-71.09708445,NA
Dynasty,Pit Bull,"(42.38202192, -71.14079128)",-71.14079128,-71.14079128,West Cambridge
Kerry,German Shepherd,"(42.37580596, -71.14656816)",-71.14656816,-71.14656816,West Cambridge
Oliver,Boston Terrier,"(42.39053397, -71.14584945)",-71.14584945,-71.14584945,Cambridge Highlands
Dolly,Beagle,"(42.38370242, -71.14082552)",-71.14082552,-71.14082552,West Cambridge
Peso,Australian Shepherd,"(42.37923871, -71.14394778)",-71.14394778,-71.14394778,West Cambridge
Izzy,Corgi,"(42.37142074, -71.09050902)",-71.09050902,-71.09050902,Wellington-Harrington
Chauncey,Lab,"(42.39104541, -71.14725546)",-71.14725546,-71.14725546,Cambridge Highlands
Zapata,Chihuahua,"(42.37619998, -71.15516531)",-71.15516531,-71.15516531,Strawberry Hill
Carlisle,American Foxhound,"(42.38848337, -71.12170309)",-71.12170309,-71.12170309,North Cambridge
Vinny,West Highland White Terrier,"(42.38404153, -71.12411133)",-71.12411133,-71.12411133,Neighborhood Nine
Sachi,German Shepherd,"(42.37573548, -71.0950207)",-71.0950207,-71.0950207,Wellington-Harrington
Duffy,Maltese,"(42.37003443, -71.09921565)",-71.09921565,-71.09921565,The Port
Gracie Krum,"Goldendoodle, Mini","(42.36347108, -71.10765498)",-71.10765498,-71.10765498,Cambridgeport
Boss Dog,Schipperkee,"(42.3689387, -71.10882202)",-71.10882202,-71.10882202,Mid-Cambridge
Buckle,Portuguese Water Dog,"(42.37786186, -71.14057504)",-71.14057504,-71.14057504,West Cambridge
Cassius,Boxer,"(42.40018954, -71.13127054)",-71.13127054,-71.13127054,North Cambridge
Tycho,French Bulldog,"(42.36782873, -71.09378068)",-71.09378068,-71.09378068,The Port
Jobe,Rat Terrier,"(42.36700885, -71.09755579)",-71.09755579,-71.09755579,The Port
Chester,Jrt,"(42.38480463, -71.1228159)",-71.1228159,-71.1228159,Neighborhood Nine
Lucy Niles-Rich,Beagle Mix,"(42.37031086, -71.11322645)",-71.11322645,-71.11322645,Riverside
Dublin,Labradoddle,"(42.37620378, -71.14745152)",-71.14745152,-71.14745152,West Cambridge
Diesel,Pit Bull,"(42.39925722, -71.13444484)",-71.13444484,-71.13444484,North Cambridge
Shiloh,Belgian Shepherd,"(42.37738533, -71.14202308)",-71.14202308,-71.14202308,West Cambridge
Marcus,Welsh Spaniel,"(42.37916797, -71.13184547)",-71.13184547,-71.13184547,West Cambridge
Gryphon,Schnauzer,"(42.38625071, -71.12054244)",-71.12054244,-71.12054244,Neighborhood Nine
Jerry,Terr,"(42.36962437, -71.11396235)",-71.11396235,-71.11396235,Mid-Cambridge
Ally,Beagle Mix,"(42.37648775, -71.1340245)",-71.1340245,-71.1340245,West Cambridge
Lucy,Cockerpoo,"(42.37288181, -71.12652862)",-71.12652862,-71.12652862,West Cambridge
Jordy,Chihuahua Mix,"(42.35796427, -71.1100017)",-71.1100017,-71.1100017,Cambridgeport
Eleanor,Boxer Mix,"(42.370003, -71.10558952)",-71.10558952,-71.10558952,Mid-Cambridge
Lotus,Cane Corso,"(42.3981796, -71.13452099)",-71.13452099,-71.13452099,North Cambridge
Jimmer,Golden-Doodle,"(42.38104446, -71.11528225)",-71.11528225,-71.11528225,Agassiz
Scout,Labrador Retriever,"(42.3781749, -71.14833792)",-71.14833792,-71.14833792,West Cambridge
Desi,Lab/Shep,"(42.36629386, -71.08216228)",-71.08216228,-71.08216228,East Cambridge
Scruffy,Lhasa Apso Mix,"(42.39727229, -71.13710427)",-71.13710427,-71.13710427,North Cambridge
Bridget,English Shepherd,"(42.37099719, -71.08367185)",-71.08367185,-71.08367185,East Cambridge
Leo,Golden Retriever,"(42.36955396, -71.07056852)",-71.07056852,-71.07056852,East Cambridge
Juno,Husky,"(42.37944728, -71.12688892)",-71.12688892,-71.12688892,West Cambridge
Sherlock,Labrador Retriever,"(42.39520067, -71.13521597)",-71.13521597,-71.13521597,North Cambridge
Kuma,Corgi,"(42.36608572, -71.10646045)",-71.10646045,-71.10646045,Riverside
Chloe,Yorksire Terrier,"(42.38074032, -71.14527424)",-71.14527424,-71.14527424,West Cambridge
Jackie,Aust Shep Mix,"(42.3716315, -71.10625078)",-71.10625078,-71.10625078,Mid-Cambridge
Gertie,LABRADOR Retriever,"(42.37065198, -71.10585419)",-71.10585419,-71.10585419,Mid-Cambridge
Olive,French Bulldog/Bos Terr,"(42.38023578, -71.12851467)",-71.12851467,-71.12851467,West Cambridge
Huckleberry,Border Collie Mix,"(42.37380614, -71.131338)",-71.131338,-71.131338,West Cambridge
Huck,Jack Russel Mix,"(42.39235131, -71.13431422)",-71.13431422,-71.13431422,North Cambridge
Reese,Chihuahua Mix,"(42.38235973, -71.11563171)",-71.11563171,-71.11563171,Agassiz
Trapper,Shetland Sheepdog,"(42.39814601, -71.13420042)",-71.13420042,-71.13420042,North Cambridge
Clark,Dachshund,"(42.35404175, -71.10941287)",-71.10941287,-71.10941287,Cambridgeport
Dagwood,Labrador Ret. Mix,"(42.38391547, -71.1316234)",-71.1316234,-71.1316234,Neighborhood Nine
Bear,Mix,"(42.38410168, -71.13898378)",-71.13898378,-71.13898378,West Cambridge
Alice,Labrador Retriever,"(42.38680587, -71.13465156)",-71.13465156,-71.13465156,Neighborhood Nine
Sophie,Border Collie,"(42.37781952, -71.15630418)",-71.15630418,-71.15630418,Strawberry Hill
Marina Mirabal,Maltese / Poodle Mix,"(42.38519415, -71.13012526)",-71.13012526,-71.13012526,Neighborhood Nine
Elmo,Cairn Terrier,"(42.37486927, -71.1366489)",-71.1366489,-71.1366489,West Cambridge
Mikey,Poodle/Shitzu,"(42.3614702, -71.10952068)",-71.10952068,-71.10952068,Cambridgeport
Marlie,Golden Retriever,"(42.39384047, -71.14528094)",-71.14528094,-71.14528094,Cambridge Highlands
Snickers,Terrier,"(42.37985921, -71.15149902)",-71.15149902,-71.15149902,Strawberry Hill
Penelope,Rhodesian Ridgeback,"(42.37150791, -71.09907175)",-71.09907175,-71.09907175,The Port
Darwin,Poodle,"(42.3793641, -71.14654098)",-71.14654098,-71.14654098,West Cambridge
Lilly,Shep,"(42.37411991, -71.07755602)",-71.07755602,-71.07755602,East Cambridge
Darwin,German Shorthaired Pointer,"(42.39272689, -71.14481877)",-71.14481877,-71.14481877,Cambridge Highlands
Sammy,Shiba Inu,"(42.36939389, -71.08284629)",-71.08284629,-71.08284629,East Cambridge
Lily,Dalmatian,"(42.38680004, -71.11627227)",-71.11627227,-71.11627227,Agassiz
Oscar,COLLIE,"(42.37737355, -71.13013737)",-71.13013737,-71.13013737,West Cambridge
Leonard,Bichon Frise,"(42.39855953, -71.13548259)",-71.13548259,-71.13548259,North Cambridge
Molly,King Charles Spaniel,"(42.37123443, -71.12480114)",-71.12480114,-71.12480114,West Cambridge
Belle,Dachshund,"(42.39118646, -71.12449989)",-71.12449989,-71.12449989,North Cambridge
Remi,,"(42.38936009, -71.13991755)",-71.13991755,-71.13991755,Neighborhood Nine
Buda,Vizsla,"(42.36891444, -71.09252511)",-71.09252511,-71.09252511,The Port
Loki,Maltese,"(42.37095683, -71.11217705)",-71.11217705,-71.11217705,Mid-Cambridge
Fred,Golden Retriever,"(42.39726297, -71.13547066)",-71.13547066,-71.13547066,North Cambridge
Heidi,Newfoundland,"(42.38511397, -71.13097358)",-71.13097358,-71.13097358,Neighborhood Nine
Charlie,Choc Lab Mix,"(42.38393069, -71.11902234)",-71.11902234,-71.11902234,Agassiz
Buddy,Dachshund,"(42.38510512, -71.11717987)",-71.11717987,-71.11717987,Agassiz
Marti,Maltese,"(42.37478241, -71.13822552)",-71.13822552,-71.13822552,West Cambridge
Birdie,Labrador Retriever Mix,"(42.36970395, -71.11053053)",-71.11053053,-71.11053053,Mid-Cambridge
Misty Joe,Jack Russell Terrier,"(42.36529053, -71.09402073)",-71.09402073,-71.09402073,The Port
Billie,Red Tick Coon Hound,"(42.37418369, -71.09183032)",-71.09183032,-71.09183032,Wellington-Harrington
Sydney,Yorkshire Terrier,"(42.39626393, -71.14197486)",-71.14197486,-71.14197486,North Cambridge
Thatcher,Labrador Retriever,"(42.38458036, -71.12100822)",-71.12100822,-71.12100822,Neighborhood Nine
Bug,Boston Terr,"(42.40092002, -71.13393938)",-71.13393938,-71.13393938,North Cambridge
Fenway,Golden Doodle,"(42.38401377, -71.13923145)",-71.13923145,-71.13923145,West Cambridge
Mehitabel,Poodle Mix,"(42.38639242, -71.12593844)",-71.12593844,-71.12593844,Neighborhood Nine
